$GPGGA,022559.000,5102.0831,N,11403.7391,W,1,12,0.87,1062.1,M,-17.5,M,,*66
$GNGSA,A,3,30,13,11,07,28,19,,,,,,,1.14,0.87,0.73*17
$GNGSA,A,3,70,82,73,80,79,81,,,,,,,1.14,0.87,0.73*15
$GPGSV,3,1,12,28,81,292,36,30,60,132,44,13,47,273,41,11,34,088,38*7C
$GPGSV,3,2,12,17,33,194,43,51,31,171,37,07,28,129,35,15,24,311,35*75
$GPGSV,3,3,12,04,23,076,33,01,21,106,32,19,16,042,35,18,01,349,*73
$GLGSV,2,1,08,80,76,016,37,82,58,136,40,81,42,045,35,73,32,305,41*6D
$GLGSV,2,2,08,79,29,105,36,71,21,289,37,72,16,341,,70,04,243,21*6A
$GNRMC,022559.000,A,5102.0831,N,11403.7391,W,1.05,80.62,100315,,,A*52
$GPVTG,80.62,T,,M,1.05,N,1.94,K,A*09
$GPGGA,022600.000,5102.0829,N,11403.7390,W,1,12,0.87,1061.5,M,-17.5,M,,*66
$GNGSA,A,3,30,13,11,07,28,19,,,,,,,1.14,0.87,0.73*17
$GNGSA,A,3,70,82,73,80,79,81,,,,,,,1.14,0.87,0.73*15
$GPGSV,3,1,12,28,81,292,36,30,60,132,44,13,47,273,41,11,34,088,37*73
$GPGSV,3,2,12,17,33,194,43,51,31,171,38,07,28,129,36,15,24,311,34*78
$GPGSV,3,3,12,04,23,076,33,01,21,106,33,19,16,042,35,18,01,349,*72
$GLGSV,2,1,08,80,76,016,38,82,58,136,41,81,42,045,34,73,32,305,41*62
$GLGSV,2,2,08,79,29,105,35,71,21,289,38,72,16,341,,70,04,243,13*67
$GNRMC,022600.000,A,5102.0829,N,11403.7390,W,0.02,80.62,100315,,,A*53
$GPVTG,80.62,T,,M,0.02,N,0.04,K,A*07
$GPGGA,022601.000,5102.0828,N,11403.7391,W,1,12,0.87,1061.1,M,-17.5,M,,*63
$GNGSA,A,3,30,13,11,07,28,19,,,,,,,1.39,0.87,1.08*15
$GNGSA,A,3,70,82,73,80,79,81,,,,,,,1.39,0.87,1.08*17
$GPGSV,3,1,12,28,81,292,37,30,60,132,43,13,47,273,41,11,34,088,36*74
$GPGSV,3,2,12,17,33,194,42,51,31,171,37,07,28,129,37,15,24,311,33*70
$GPGSV,3,3,12,04,23,076,34,01,21,106,34,19,16,042,35,18,01,349,*72
$GLGSV,2,1,08,80,76,016,38,82,58,136,41,81,42,045,35,73,32,305,40*62
$GLGSV,2,2,08,79,29,105,34,71,21,289,39,72,16,341,,70,04,243,13*67
$GNRMC,022601.000,A,5102.0828,N,11403.7391,W,0.13,80.62,100315,,,A*52
$GPVTG,80.62,T,,M,0.13,N,0.23,K,A*02
$GPGGA,022602.000,5102.0827,N,11403.7392,W,1,12,0.87,1060.8,M,-17.5,M,,*64
$GNGSA,A,3,30,13,11,07,28,19,,,,,,,1.14,0.87,0.73*17
$GNGSA,A,3,70,82,73,80,79,81,,,,,,,1.14,0.87,0.73*15
$GPGSV,3,1,12,28,81,292,37,30,60,132,42,13,47,273,41,11,34,088,35*76
$GPGSV,3,2,12,17,33,194,42,51,31,171,37,07,28,129,37,15,24,311,33*70
$GPGSV,3,3,12,04,23,076,35,01,21,106,34,19,16,042,35,18,01,349,*73
$GLGSV,2,1,08,80,76,016,38,82,58,136,42,81,42,045,35,73,32,305,40*61
$GLGSV,2,2,08,79,29,105,33,71,21,289,40,72,16,341,,70,04,243,11*6C
$GNRMC,022602.000,A,5102.0827,N,11403.7392,W,0.02,80.62,100315,,,A*5D
$GPVTG,80.62,T,,M,0.02,N,0.03,K,A*00
$GPGGA,022603.000,5102.0822,N,11403.7395,W,1,14,0.77,1059.8,M,-17.5,M,,*64
$GNGSA,A,3,30,13,11,07,04,17,28,19,,,,,1.06,0.77,0.72*18
$GNGSA,A,3,70,82,73,80,79,81,,,,,,,1.06,0.77,0.72*18
$GPGSV,3,1,12,28,81,292,37,30,60,132,41,13,47,273,41,11,34,088,35*75
$GPGSV,3,2,12,17,33,194,42,51,31,171,37,07,28,129,37,15,24,311,33*70
$GPGSV,3,3,12,04,23,076,35,01,21,106,35,19,16,042,36,18,01,349,*71
$GLGSV,2,1,08,80,76,016,38,82,58,136,42,81,42,045,35,73,32,305,40*61
$GLGSV,2,2,08,79,29,105,33,71,21,289,40,72,16,341,,70,04,243,12*6F
$GNRMC,022603.000,A,5102.0822,N,11403.7395,W,0.01,80.62,100315,,,A*5D
$GPVTG,80.62,T,,M,0.01,N,0.01,K,A*01
$GPGGA,022604.000,5102.0819,N,11403.7395,W,1,14,0.77,1059.2,M,-17.5,M,,*61
$GNGSA,A,3,30,13,11,07,04,17,28,19,,,,,1.06,0.77,0.72*18
$GNGSA,A,3,70,82,73,80,79,81,,,,,,,1.06,0.77,0.72*18
$GPGSV,3,1,12,28,81,292,38,30,60,132,42,13,47,273,41,11,34,088,34*78
$GPGSV,3,2,12,17,33,194,43,51,31,171,37,07,28,129,37,15,24,311,34*76
$GPGSV,3,3,12,04,23,076,36,01,21,106,35,19,16,042,36,18,01,349,*72
$GLGSV,2,1,08,80,76,016,39,82,58,136,41,81,42,045,36,73,32,305,40*60
$GLGSV,2,2,08,79,29,105,34,71,21,289,41,72,16,341,,70,04,243,17*6C
$GNRMC,022604.000,A,5102.0819,N,11403.7395,W,0.27,80.62,100315,,,A*56
$GPVTG,80.62,T,,M,0.27,N,0.49,K,A*09
$GPGGA,022605.000,5102.0816,N,11403.7397,W,1,14,0.77,1058.7,M,-17.5,M,,*69
$GNGSA,A,3,30,13,11,07,04,17,28,19,,,,,1.06,0.77,0.72*18
$GNGSA,A,3,70,82,73,80,79,81,,,,,,,1.06,0.77,0.72*18
$GPGSV,3,1,12,28,81,292,38,30,60,132,43,13,47,273,41,11,34,088,34*79
$GPGSV,3,2,12,17,33,194,43,51,31,171,38,07,28,129,37,15,24,311,35*78
$GPGSV,3,3,12,04,23,076,37,01,21,106,33,19,16,042,37,18,01,349,*74
$GLGSV,2,1,08,80,76,016,38,82,58,136,41,81,42,045,35,73,32,305,40*62
$GLGSV,2,2,08,79,29,105,35,71,21,289,40,72,16,341,,70,04,243,21*69
$GNRMC,022605.000,A,5102.0816,N,11403.7397,W,0.64,199.63,100315,,,A*65
$GPVTG,199.63,T,,M,0.64,N,1.18,K,A*33
$GPGGA,022606.000,5102.0812,N,11403.7396,W,1,14,0.77,1058.2,M,-17.5,M,,*6A
$GNGSA,A,3,30,13,11,07,04,17,28,19,,,,,1.06,0.77,0.72*18
$GNGSA,A,3,70,82,73,80,79,81,,,,,,,1.06,0.77,0.72*18
$GPGSV,3,1,12,28,81,293,37,30,60,132,44,13,47,273,42,11,34,088,35*72
$GPGSV,3,2,12,17,33,194,42,51,31,171,38,07,28,129,39,15,24,311,36*74
$GPGSV,3,3,12,04,23,076,25,01,21,106,24,19,16,042,36,18,01,349,*70
$GLGSV,2,1,08,80,76,016,38,82,58,136,42,81,42,045,36,73,32,305,41*63
$GLGSV,2,2,08,79,29,105,34,71,21,289,40,72,16,341,,70,04,243,20*69
$GNRMC,022606.000,A,5102.0812,N,11403.7396,W,0.65,193.63,100315,,,A*68
$GPVTG,193.63,T,,M,0.65,N,1.20,K,A*33
$GPGGA,022607.000,5102.0809,N,11403.7397,W,1,14,0.77,1057.6,M,-17.5,M,,*6B
$GNGSA,A,3,30,13,11,07,04,17,28,19,,,,,1.06,0.77,0.72*18
$GNGSA,A,3,70,82,73,80,79,81,,,,,,,1.06,0.77,0.72*18
$GPGSV,3,1,12,28,81,293,35,30,60,132,45,13,47,273,43,11,34,088,35*70
$GPGSV,3,2,12,17,33,194,42,51,31,171,38,07,28,129,40,15,24,311,38*74
$GPGSV,3,3,12,04,23,076,32,01,21,106,25,19,16,042,25,18,01,349,*75
$GLGSV,2,1,08,80,76,016,38,82,58,136,41,81,42,045,35,73,32,305,41*63
$GLGSV,2,2,08,79,29,105,27,71,21,289,39,72,16,341,,70,04,243,25*60
$GNRMC,022607.000,A,5102.0809,N,11403.7397,W,0.77,187.45,100315,,,A*60
$GPVTG,187.45,T,,M,0.77,N,1.42,K,A*35
$GPGGA,022608.000,5102.0806,N,11403.7397,W,1,14,0.77,1057.2,M,-17.5,M,,*6F
$GNGSA,A,3,30,13,11,07,04,17,28,19,,,,,1.06,0.77,0.72*18
$GNGSA,A,3,70,82,73,80,79,81,,,,,,,1.06,0.77,0.72*18
$GPGSV,3,1,12,28,81,293,35,30,59,132,46,13,47,273,43,11,34,088,21*7C
$GPGSV,3,2,12,17,33,194,41,51,31,171,39,07,28,129,40,15,24,311,38*76
$GPGSV,3,3,12,04,23,076,33,01,21,106,35,19,16,042,18,18,01,349,*7B
$GLGSV,2,1,08,80,76,016,39,82,58,136,41,81,42,045,33,73,32,305,42*67
$GLGSV,2,2,08,79,29,105,26,71,21,289,40,72,16,341,,70,04,243,20*6A
$GNRMC,022608.000,A,5102.0806,N,11403.7397,W,0.87,183.23,100315,,,A*6B
$GPVTG,183.23,T,,M,0.87,N,1.60,K,A*3E
$GPGGA,022609.000,5102.0803,N,11403.7396,W,1,14,0.77,1056.8,M,-17.5,M,,*61
$GNGSA,A,3,30,13,11,07,04,17,28,19,,,,,1.06,0.77,0.72*18
$GNGSA,A,3,70,82,73,80,79,81,,,,,,,1.06,0.77,0.72*18
$GPGSV,3,1,12,28,81,293,36,30,59,132,46,13,47,273,43,11,34,088,31*7E
$GPGSV,3,2,12,17,33,194,41,51,31,171,39,07,28,129,39,15,24,311,39*79
$GPGSV,3,3,12,04,23,076,33,01,21,106,35,19,16,042,33,18,01,349,*72
$GLGSV,2,1,08,80,76,016,39,82,58,136,28,81,42,045,32,73,32,305,43*68
$GLGSV,2,2,08,79,29,105,26,71,21,289,40,72,16,341,,70,04,243,16*6F
$GNRMC,022609.000,A,5102.0803,N,11403.7396,W,1.30,172.89,100315,,,A*6D
$GPVTG,172.89,T,,M,1.30,N,2.42,K,A*3E
$GPGGA,022610.000,5102.0797,N,11403.7393,W,1,15,0.73,1057.0,M,-17.5,M,,*62
$GNGSA,A,3,30,13,11,07,04,17,28,19,,,,,1.02,0.73,0.71*1B
$GNGSA,A,3,71,70,82,73,80,79,81,,,,,,1.02,0.73,0.71*1D
$GPGSV,3,1,12,28,81,293,36,30,59,132,32,13,47,273,41,11,34,088,33*7D
$GPGSV,3,2,12,17,33,194,40,51,31,171,38,07,28,129,40,15,24,311,29*76
$GPGSV,3,3,12,04,23,076,24,01,21,106,36,19,16,042,26,18,01,349,*73
$GLGSV,2,1,08,80,76,016,39,82,58,136,29,81,42,045,34,73,32,305,34*6F
$GLGSV,2,2,08,79,29,105,35,71,21,289,41,72,16,341,,70,04,243,20*69
$GNRMC,022610.000,A,5102.0797,N,11403.7393,W,2.76,160.95,100315,,,A*6D
$GPVTG,160.95,T,,M,2.76,N,5.12,K,A*33
$GPGGA,022611.000,5102.0787,N,11403.7386,W,1,15,0.73,1057.1,M,-17.5,M,,*67
$GNGSA,A,3,30,13,11,07,04,17,28,19,,,,,1.02,0.73,0.71*1B
$GNGSA,A,3,71,70,82,73,80,79,81,,,,,,1.02,0.73,0.71*1D
$GPGSV,3,1,12,28,81,293,36,30,59,132,34,13,47,273,40,11,34,088,35*7C
$GPGSV,3,2,12,17,33,194,40,51,31,171,38,07,28,129,41,15,24,311,28*76
$GPGSV,3,3,12,04,23,076,41,01,21,106,38,19,16,042,34,18,01,349,*7D
$GLGSV,2,1,08,80,76,016,37,82,58,136,31,81,42,045,43,73,32,305,34*68
$GLGSV,2,2,08,79,29,105,35,71,21,289,34,72,16,341,,70,04,243,20*6B
$GNRMC,022611.000,A,5102.0787,N,11403.7386,W,4.43,139.10,100315,,,A*68
$GPVTG,139.10,T,,M,4.43,N,8.21,K,A*3F
$GPGGA,022612.000,5102.0778,N,11403.7366,W,1,15,0.73,1056.7,M,-17.5,M,,*6D
$GNGSA,A,3,30,13,11,07,04,17,28,19,,,,,1.26,0.73,1.02*18
$GNGSA,A,3,71,70,82,73,80,79,81,,,,,,1.26,0.73,1.02*1E
$GPGSV,3,1,12,28,81,293,37,30,59,132,35,13,47,273,41,11,34,088,44*7B
$GPGSV,3,2,12,17,33,194,41,51,31,171,38,07,28,129,41,15,24,311,29*76
$GPGSV,3,3,12,04,23,076,41,01,21,106,38,19,16,042,34,18,01,349,*7D
$GLGSV,2,1,08,80,76,016,35,82,58,136,38,81,42,045,42,73,32,305,32*64
$GLGSV,2,2,08,79,29,105,35,71,21,289,32,72,16,341,,70,04,243,21*6C
$GNRMC,022612.000,A,5102.0778,N,11403.7366,W,6.50,114.87,100315,,,A*64
$GPVTG,114.87,T,,M,6.50,N,12.04,K,A*02
$GPGGA,022613.000,5102.0772,N,11403.7337,W,1,15,0.73,1056.4,M,-17.5,M,,*61
$GNGSA,A,3,30,13,11,07,04,17,28,19,,,,,1.26,0.73,1.02*18
$GNGSA,A,3,71,70,82,73,80,79,81,,,,,,1.26,0.73,1.02*1E
$GPGSV,3,1,12,28,81,293,38,30,59,132,35,13,47,273,40,11,34,088,44*75
$GPGSV,3,2,12,17,33,194,41,51,31,171,37,07,28,129,41,15,24,311,30*71
$GPGSV,3,3,12,04,23,076,42,01,21,106,36,19,16,042,34,18,01,349,*70
$GLGSV,2,1,08,80,76,016,35,82,58,136,37,81,42,045,40,73,32,305,32*69
$GLGSV,2,2,08,79,29,105,33,71,21,289,31,72,16,341,,70,04,243,21*69
$GNRMC,022613.000,A,5102.0772,N,11403.7337,W,6.78,103.55,100315,,,A*68
$GPVTG,103.55,T,,M,6.78,N,12.56,K,A*06
$GPGGA,022614.000,5102.0769,N,11403.7307,W,1,15,0.73,1056.0,M,-17.5,M,,*6B
$GNGSA,A,3,30,13,11,07,04,17,28,19,,,,,1.26,0.73,1.02*18
$GNGSA,A,3,71,70,82,73,80,79,81,,,,,,1.26,0.73,1.02*1E
$GPGSV,3,1,12,28,81,293,39,30,59,132,36,13,47,273,41,11,34,088,43*71
$GPGSV,3,2,12,17,33,194,42,51,31,171,35,07,28,129,40,15,24,311,32*73
$GPGSV,3,3,12,04,23,076,41,01,21,106,35,19,16,042,36,18,01,349,*72
$GLGSV,2,1,08,80,76,016,35,82,58,136,38,81,42,045,39,73,32,305,31*6B
$GLGSV,2,2,08,79,29,105,31,71,21,289,30,72,16,341,,70,04,243,20*6B
$GNRMC,022614.000,A,5102.0769,N,11403.7307,W,7.18,93.48,100315,,,A*55
$GPVTG,93.48,T,,M,7.18,N,13.31,K,A*35
$GPGGA,022615.000,5102.0769,N,11403.7275,W,1,15,0.73,1055.7,M,-17.5,M,,*6A
$GNGSA,A,3,30,13,11,07,04,17,28,19,,,,,1.26,0.73,1.02*18
$GNGSA,A,3,71,70,82,73,80,79,81,,,,,,1.26,0.73,1.02*1E
$GPGSV,3,1,12,28,81,293,39,30,59,132,37,13,47,273,42,11,34,088,36*71
$GPGSV,3,2,12,17,33,194,43,51,31,171,34,07,28,129,39,15,24,311,33*7C
$GPGSV,3,3,12,04,23,076,34,01,21,106,36,19,16,042,37,18,01,349,*72
$GLGSV,2,1,08,80,76,016,35,82,58,136,39,81,42,045,39,73,32,305,32*69
$GLGSV,2,2,08,79,29,105,32,71,21,289,30,72,16,341,,70,04,243,19*62
$GNRMC,022615.000,A,5102.0769,N,11403.7275,W,7.71,86.03,100315,,,A*54
$GPVTG,86.03,T,,M,7.71,N,14.29,K,A*3F
$GPGGA,022616.000,5102.0771,N,11403.7237,W,1,15,0.73,1055.7,M,-17.5,M,,*66
$GNGSA,A,3,30,13,11,07,04,17,28,19,,,,,1.26,0.73,1.02*18
$GNGSA,A,3,71,70,82,73,80,79,81,,,,,,1.26,0.73,1.02*1E
$GPGSV,3,1,12,28,81,293,38,30,59,132,38,13,47,273,41,11,34,088,38*72
$GPGSV,3,2,12,17,33,194,42,51,31,171,34,07,28,129,38,15,24,311,34*7B
$GPGSV,3,3,12,04,23,076,35,01,21,106,36,19,16,042,38,18,01,349,*7C
$GLGSV,2,1,08,80,76,016,35,82,58,136,39,81,42,045,39,73,32,305,34*6F
$GLGSV,2,2,08,79,29,105,32,71,21,289,31,72,16,341,,70,04,243,19*63
$GNRMC,022616.000,A,5102.0771,N,11403.7237,W,9.02,83.09,100315,,,A*5D
$GPVTG,83.09,T,,M,9.02,N,16.72,K,A*36
$GPGGA,022617.000,5102.0775,N,11403.7193,W,1,15,0.73,1055.5,M,-17.5,M,,*6C
$GNGSA,A,3,30,13,11,07,04,17,28,19,,,,,1.26,0.73,1.02*18
$GNGSA,A,3,71,70,82,73,80,79,81,,,,,,1.26,0.73,1.02*1E
$GPGSV,3,1,12,28,81,293,38,30,59,132,39,13,47,273,41,11,34,088,39*72
$GPGSV,3,2,12,17,33,194,41,51,31,171,34,07,28,129,37,15,24,311,34*77
$GPGSV,3,3,12,04,23,076,35,01,21,106,36,19,16,042,39,18,01,349,*7D
$GLGSV,2,1,08,80,76,016,35,82,58,136,37,81,42,045,40,73,32,305,35*6E
$GLGSV,2,2,08,79,29,105,33,71,21,289,31,72,16,341,,70,04,243,18*63
$GNRMC,022617.000,A,5102.0775,N,11403.7193,W,10.62,81.73,100315,,,A*64
$GPVTG,81.73,T,,M,10.62,N,19.69,K,A*02
$GPGGA,022618.000,5102.0780,N,11403.7146,W,1,15,0.73,1055.0,M,-17.5,M,,*64
$GNGSA,A,3,30,13,11,07,04,17,28,19,,,,,1.26,0.73,1.02*18
$GNGSA,A,3,71,70,82,73,80,79,81,,,,,,1.26,0.73,1.02*1E
$GPGSV,3,1,12,28,81,293,38,30,59,132,41,13,47,273,41,11,34,088,40*73
$GPGSV,3,2,12,17,33,194,33,51,31,171,34,07,28,129,36,15,24,311,34*73
$GPGSV,3,3,12,04,23,076,35,01,21,106,35,19,16,042,40,18,01,349,*70
$GLGSV,2,1,08,80,76,016,35,82,58,136,37,81,42,045,40,73,32,305,35*6E
$GLGSV,2,2,08,79,29,105,34,71,21,289,30,72,16,341,,70,04,243,17*6A
$GNRMC,022618.000,A,5102.0780,N,11403.7146,W,11.49,79.53,100315,,,A*64
$GPVTG,79.53,T,,M,11.49,N,21.30,K,A*08
$GPGGA,022619.000,5102.0787,N,11403.7094,W,1,15,0.73,1054.6,M,-17.5,M,,*6B
$GNGSA,A,3,30,13,11,07,04,17,28,19,,,,,1.26,0.73,1.02*18
$GNGSA,A,3,71,70,82,73,80,79,81,,,,,,1.26,0.73,1.02*1E
$GPGSV,3,1,12,28,81,293,38,30,59,132,42,13,47,273,41,11,34,088,41*71
$GPGSV,3,2,12,17,33,194,33,51,31,171,36,07,28,129,37,15,24,311,33*77
$GPGSV,3,3,12,04,23,076,34,01,21,106,34,19,16,042,41,18,01,349,*71
$GLGSV,2,1,08,80,76,016,35,82,58,136,38,81,42,045,40,73,32,305,36*62
$GLGSV,2,2,08,79,29,105,34,71,21,289,30,72,16,341,,70,04,243,17*6A
$GNRMC,022619.000,A,5102.0787,N,11403.7094,W,11.95,76.44,100315,,,A*64
$GPVTG,76.44,T,,M,11.95,N,22.14,K,A*05
$GPGGA,022620.000,5102.0796,N,11403.7042,W,1,15,0.73,1054.1,M,-17.5,M,,*6D
$GNGSA,A,3,30,13,11,07,04,17,28,19,,,,,1.26,0.73,1.02*18
$GNGSA,A,3,71,70,82,73,80,79,81,,,,,,1.26,0.73,1.02*1E
$GPGSV,3,1,12,28,81,293,38,30,59,132,43,13,47,273,41,11,34,088,41*70
$GPGSV,3,2,12,17,33,194,33,51,31,171,38,07,28,129,39,15,24,311,33*77
$GPGSV,3,3,12,04,23,076,32,01,21,106,34,19,16,042,41,18,01,349,*77
$GLGSV,2,1,08,80,76,016,33,82,58,136,39,81,42,045,40,73,32,305,36*65
$GLGSV,2,2,08,79,29,105,33,71,21,289,25,72,16,341,30,70,04,243,16*6B
$GNRMC,022620.000,A,5102.0796,N,11403.7042,W,12.53,73.62,100315,,,A*6D
$GPVTG,73.62,T,,M,12.53,N,23.22,K,A*09
$GPGGA,022621.000,5102.0807,N,11403.6988,W,1,15,0.73,1053.7,M,-17.5,M,,*64
$GNGSA,A,3,30,13,11,07,04,17,28,19,,,,,1.26,0.73,1.02*18
$GNGSA,A,3,71,70,82,73,80,79,81,,,,,,1.26,0.73,1.02*1E
$GPGSV,3,1,12,28,81,293,38,30,59,132,43,13,47,273,41,11,34,088,41*70
$GPGSV,3,2,12,17,33,194,32,51,31,171,40,07,28,129,40,15,24,311,33*77
$GPGSV,3,3,12,04,23,076,31,01,21,106,34,19,16,042,41,18,01,349,*74
$GLGSV,2,1,08,80,76,016,32,82,58,136,40,81,42,045,40,73,32,305,36*6A
$GLGSV,2,2,08,79,29,105,33,71,21,289,26,72,16,341,32,70,04,243,16*6A
$GNRMC,022621.000,A,5102.0807,N,11403.6988,W,13.10,71.23,100315,,,A*64
$GPVTG,71.23,T,,M,13.10,N,24.28,K,A*05
$GPGGA,022622.000,5102.0819,N,11403.6932,W,1,15,0.73,1053.3,M,-17.5,M,,*6D
$GNGSA,A,3,30,13,11,07,04,17,28,19,,,,,1.26,0.73,1.02*18
$GNGSA,A,3,71,70,82,73,80,79,81,,,,,,1.26,0.73,1.02*1E
$GPGSV,3,1,12,28,81,293,39,30,59,132,44,13,47,273,41,11,34,088,41*76
$GPGSV,3,2,12,17,33,194,31,51,31,171,41,07,28,129,41,15,24,311,33*74
$GPGSV,3,3,12,04,23,076,31,01,21,106,34,19,16,042,41,18,01,349,*74
$GLGSV,2,1,08,80,76,016,31,82,58,136,40,81,42,045,41,73,32,305,37*69
$GLGSV,2,2,08,79,29,105,33,71,21,289,30,72,16,341,33,70,04,243,15*6F
$GNRMC,022622.000,A,5102.0819,N,11403.6932,W,13.61,70.55,100315,,,A*6F
$GPVTG,70.55,T,,M,13.61,N,25.22,K,A*08
$GPGGA,022623.000,5102.0833,N,11403.6874,W,1,15,0.73,1053.1,M,-17.5,M,,*65
$GNGSA,A,3,30,13,11,07,04,17,28,19,,,,,1.26,0.73,1.02*18
$GNGSA,A,3,71,70,82,73,80,79,81,,,,,,1.26,0.73,1.02*1E
$GPGSV,3,1,12,28,81,293,39,30,59,132,45,13,47,273,42,11,34,088,40*75
$GPGSV,3,2,12,17,33,194,31,51,31,171,41,07,28,129,40,15,24,311,33*75
$GPGSV,3,3,12,04,23,076,39,01,21,106,33,19,16,042,41,18,01,349,*7B
$GLGSV,2,1,08,80,76,016,31,82,58,136,41,81,42,045,41,73,32,305,36*69
$GLGSV,2,2,08,79,29,105,32,71,21,289,34,72,16,341,32,70,04,243,16*68
$GNRMC,022623.000,A,5102.0833,N,11403.6874,W,14.01,68.43,100315,,,A*6A
$GPVTG,68.43,T,,M,14.01,N,25.95,K,A*0B
$GPGGA,022624.000,5102.0848,N,11403.6818,W,1,15,0.73,1052.9,M,-17.5,M,,*6D
$GNGSA,A,3,30,13,11,07,04,17,28,19,,,,,1.26,0.73,1.02*18
$GNGSA,A,3,71,70,82,73,80,79,81,,,,,,1.26,0.73,1.02*1E
$GPGSV,3,1,12,28,81,293,39,30,59,132,45,13,47,273,43,11,34,088,39*7A
$GPGSV,3,2,12,17,33,194,33,51,31,171,42,07,28,129,40,15,24,311,31*76
$GPGSV,3,3,12,04,23,076,39,01,21,106,32,19,16,042,39,18,01,349,*75
$GLGSV,2,1,08,80,76,016,29,82,58,136,42,81,42,045,40,73,32,305,36*62
$GLGSV,2,2,08,79,29,105,31,71,21,289,33,72,16,341,34,70,04,243,16*6A
$GNRMC,022624.000,A,5102.0848,N,11403.6818,W,13.95,64.77,100315,,,A*6A
$GPVTG,64.77,T,,M,13.95,N,25.85,K,A*0B
$GPGGA,022625.000,5102.0865,N,11403.6762,W,1,15,0.73,1052.6,M,-17.5,M,,*6E
$GNGSA,A,3,30,13,11,07,04,17,28,19,,,,,1.26,0.73,1.02*18
$GNGSA,A,3,71,70,82,73,80,79,81,,,,,,1.26,0.73,1.02*1E
$GPGSV,3,1,12,28,81,293,40,30,59,132,45,13,47,273,43,11,34,088,39*74
$GPGSV,3,2,12,17,33,194,33,51,31,171,42,07,28,129,39,15,24,311,32*7B
$GPGSV,3,3,12,04,23,076,39,01,21,106,31,19,16,042,38,18,01,349,*77
$GLGSV,2,1,08,80,76,016,29,82,58,136,43,81,42,045,39,73,32,305,36*6D
$GLGSV,2,2,08,79,29,105,31,71,21,289,34,72,16,341,33,70,04,243,15*69
$GNRMC,022625.000,A,5102.0865,N,11403.6762,W,13.76,63.82,100315,,,A*66
$GPVTG,63.82,T,,M,13.76,N,25.50,K,A*03
$GPGGA,022626.000,5102.0881,N,11403.6705,W,1,15,0.73,1052.2,M,-17.5,M,,*62
$GNGSA,A,3,30,13,11,07,04,17,28,19,,,,,1.25,0.73,1.02*1B
$GNGSA,A,3,71,70,82,73,80,79,81,,,,,,1.25,0.73,1.02*1D
$GPGSV,3,1,12,28,81,293,40,30,59,132,45,13,47,273,43,11,34,088,37*7A
$GPGSV,3,2,12,17,33,194,32,51,31,171,42,07,28,129,39,15,24,311,30*78
$GPGSV,3,3,12,04,23,076,39,01,21,106,30,19,16,042,39,18,01,349,*77
$GLGSV,2,1,08,80,76,016,36,82,58,136,43,81,42,045,40,73,32,305,36*6D
$GLGSV,2,2,08,79,29,105,31,71,21,289,35,72,16,341,32,70,04,243,14*68
$GNRMC,022626.000,A,5102.0881,N,11403.6705,W,14.25,65.95,100315,,,A*6F
$GPVTG,65.95,T,,M,14.25,N,26.40,K,A*00
$GPGGA,022627.000,5102.0896,N,11403.6646,W,1,15,0.73,1051.3,M,-17.5,M,,*61
$GNGSA,A,3,30,13,11,07,04,17,28,19,,,,,1.25,0.73,1.02*1B
$GNGSA,A,3,71,70,82,73,80,79,81,,,,,,1.25,0.73,1.02*1D
$GPGSV,3,1,12,28,81,293,41,30,59,132,45,13,47,273,43,11,34,088,37*7B
$GPGSV,3,2,12,17,33,194,32,51,31,171,43,07,28,129,40,15,24,311,32*75
$GPGSV,3,3,12,04,23,076,38,01,21,106,30,19,16,042,39,18,01,349,*76
$GLGSV,2,1,08,80,76,016,36,82,58,136,43,81,42,045,41,73,32,305,37*6D
$GLGSV,2,2,08,79,29,105,29,71,21,289,24,72,16,341,31,70,04,243,16*60
$GNRMC,022627.000,A,5102.0896,N,11403.6646,W,14.97,71.26,100315,,,A*6A
$GPVTG,71.26,T,,M,14.97,N,27.74,K,A*02
$GPGGA,022628.000,5102.0904,N,11403.6582,W,1,15,0.73,1050.3,M,-17.5,M,,*6E
$GNGSA,A,3,30,13,11,07,04,17,28,19,,,,,1.25,0.73,1.02*1B
$GNGSA,A,3,71,70,82,73,80,79,81,,,,,,1.25,0.73,1.02*1D
$GPGSV,3,1,12,28,81,293,42,30,59,132,44,13,47,273,43,11,34,088,38*76
$GPGSV,3,2,12,17,33,194,43,51,31,171,41,07,28,129,40,15,24,311,34*77
$GPGSV,3,3,12,04,23,076,37,01,21,106,37,19,16,042,40,18,01,349,*70
$GLGSV,2,1,08,80,76,016,35,82,58,136,41,81,42,045,33,73,32,305,35*6B
$GLGSV,2,2,08,79,29,105,31,71,21,289,23,72,16,341,24,70,04,243,17*6B
$GNRMC,022628.000,A,5102.0904,N,11403.6582,W,14.98,85.40,100315,,,A*60
$GPVTG,85.40,T,,M,14.98,N,27.75,K,A*07
$GPGGA,022629.000,5102.0899,N,11403.6515,W,1,15,0.73,1049.7,M,-17.5,M,,*68
$GNGSA,A,3,30,13,11,07,04,17,28,19,,,,,1.25,0.73,1.02*1B
$GNGSA,A,3,71,70,82,73,80,79,81,,,,,,1.25,0.73,1.02*1D
$GPGSV,3,1,12,28,81,293,42,30,59,132,43,13,47,273,42,11,34,088,39*71
$GPGSV,3,2,12,17,33,194,42,51,31,171,40,07,28,129,40,15,24,311,34*77
$GPGSV,3,3,12,04,23,076,38,01,21,106,36,19,16,042,39,18,01,349,*70
$GLGSV,2,1,08,80,76,016,34,82,58,136,32,81,42,045,33,73,32,305,33*68
$GLGSV,2,2,08,79,29,105,30,71,21,289,31,72,16,341,37,70,04,243,15*69
$GNRMC,022629.000,A,5102.0899,N,11403.6515,W,15.51,104.74,100315,,,A*51
$GPVTG,104.74,T,,M,15.51,N,28.74,K,A*32
$GPGGA,022630.000,5102.0882,N,11403.6454,W,1,15,0.73,1049.1,M,-17.5,M,,*68
$GNGSA,A,3,30,13,11,07,04,17,28,19,,,,,1.25,0.73,1.02*1B
$GNGSA,A,3,71,70,82,73,80,79,81,,,,,,1.25,0.73,1.02*1D
$GPGSV,3,1,12,28,81,293,41,30,59,132,41,13,47,273,42,11,34,088,40*7E
$GPGSV,3,2,12,17,33,194,42,51,31,171,39,07,28,129,39,15,24,311,33*70
$GPGSV,3,3,12,04,23,076,39,01,21,106,36,19,16,042,37,18,01,349,*7F
$GLGSV,2,1,08,80,76,016,34,82,58,136,33,81,42,045,41,73,32,305,33*6C
$GLGSV,2,2,08,79,29,105,31,71,21,289,30,72,16,341,25,70,04,243,20*6C
$GNRMC,022630.000,A,5102.0882,N,11403.6454,W,14.67,121.92,100315,,,A*5C
$GPVTG,121.92,T,,M,14.67,N,27.17,K,A*33
$GPGGA,022631.000,5102.0850,N,11403.6405,W,1,15,0.73,1048.7,M,-17.5,M,,*65
$GNGSA,A,3,30,13,11,07,04,17,28,19,,,,,1.25,0.73,1.02*1B
$GNGSA,A,3,71,70,82,73,80,79,81,,,,,,1.25,0.73,1.02*1D
$GPGSV,3,1,12,28,81,293,40,30,59,132,39,13,47,273,42,11,34,088,41*71
$GPGSV,3,2,12,17,33,194,40,51,31,171,38,07,28,129,38,15,24,311,34*75
$GPGSV,3,3,12,04,23,076,39,01,21,106,38,19,16,042,36,18,01,349,*70
$GLGSV,2,1,08,80,76,016,34,82,58,136,41,81,42,045,40,73,32,305,34*6F
$GLGSV,2,2,08,79,29,105,33,71,21,289,31,72,16,341,24,70,04,243,19*64
$GNRMC,022631.000,A,5102.0850,N,11403.6405,W,16.35,138.98,100315,,,A*51
$GPVTG,138.98,T,,M,16.35,N,30.29,K,A*3F
$GPGGA,022632.000,5102.0812,N,11403.6356,W,1,15,0.73,1048.4,M,-17.5,M,,*62
$GNGSA,A,3,30,13,11,07,04,17,28,19,,,,,1.25,0.73,1.02*1B
$GNGSA,A,3,71,70,82,73,80,79,81,,,,,,1.25,0.73,1.02*1D
$GPGSV,3,1,12,28,81,293,40,30,59,132,38,13,47,273,42,11,34,088,41*70
$GPGSV,3,2,12,17,33,194,38,51,31,171,37,07,28,129,37,15,24,311,34*7A
$GPGSV,3,3,12,04,23,076,38,01,21,106,39,19,16,042,36,18,01,349,*70
$GLGSV,2,1,08,80,76,016,33,82,58,136,41,81,42,045,40,73,32,305,35*69
$GLGSV,2,2,08,79,29,105,33,71,21,289,32,72,16,341,17,70,04,243,19*67
$GNRMC,022632.000,A,5102.0812,N,11403.6356,W,18.15,141.13,100315,,,A*54
$GPVTG,141.13,T,,M,18.15,N,33.62,K,A*32
$GPGGA,022633.000,5102.0771,N,11403.6303,W,1,17,0.68,1048.7,M,-17.5,M,,*62
$GNGSA,A,3,30,13,11,07,04,17,01,15,28,19,,,1.20,0.68,0.98*13
$GNGSA,A,3,71,70,82,73,80,79,81,,,,,,1.20,0.68,0.98*10
$GPGSV,3,1,12,28,81,293,40,30,59,132,38,13,47,273,43,11,34,088,41*71
$GPGSV,3,2,12,17,33,194,38,51,31,171,37,07,28,129,37,15,24,311,33*7D
$GPGSV,3,3,12,04,23,076,38,01,21,106,40,19,16,042,35,18,01,349,*7D
$GLGSV,2,1,08,80,76,016,32,82,58,136,41,81,42,045,40,73,32,305,35*68
$GLGSV,2,2,08,79,29,105,33,71,21,289,32,72,16,341,17,70,04,243,20*6D
$GNRMC,022633.000,A,5102.0771,N,11403.6303,W,19.78,139.57,100315,,,A*5A
$GPVTG,139.57,T,,M,19.78,N,36.66,K,A*36
$GPGGA,022634.000,5102.0726,N,11403.6242,W,1,17,0.68,1048.9,M,-17.5,M,,*6D
$GNGSA,A,3,30,13,11,07,04,17,01,15,28,19,,,1.20,0.68,0.98*13
$GNGSA,A,3,71,70,82,73,80,79,81,,,,,,1.20,0.68,0.98*10
$GPGSV,4,1,13,28,81,293,39,30,59,132,37,13,47,273,43,11,34,088,42*75
$GPGSV,4,2,13,17,33,194,37,51,31,171,37,07,28,129,37,15,24,311,33*74
$GPGSV,4,3,13,04,23,076,38,01,21,106,41,19,16,042,34,18,01,349,*7B
$GPGSV,4,4,13,26,,,33*7F
$GLGSV,2,1,08,80,76,016,32,82,58,136,41,81,42,045,40,73,32,305,36*6B
$GLGSV,2,2,08,79,29,105,33,71,21,289,34,72,16,341,17,70,04,243,21*6A
$GNRMC,022634.000,A,5102.0726,N,11403.6242,W,22.33,139.24,100315,,,A*58
$GPVTG,139.24,T,,M,22.33,N,41.38,K,A*3E
$GPGGA,022635.000,5102.0676,N,11403.6176,W,1,17,0.68,1049.1,M,-17.5,M,,*65
$GNGSA,A,3,30,13,11,07,04,17,01,15,28,19,,,1.20,0.68,0.98*13
$GNGSA,A,3,71,70,82,73,80,79,81,,,,,,1.20,0.68,0.98*10
$GPGSV,4,1,13,28,81,293,39,30,59,132,35,13,47,273,42,11,34,088,42*76
$GPGSV,4,2,13,17,33,194,35,51,31,171,37,07,28,129,37,15,24,311,34*71
$GPGSV,4,3,13,04,23,076,38,01,21,106,41,19,16,042,35,18,01,349,*7A
$GPGSV,4,4,13,26,,,34*78
$GLGSV,2,1,08,80,76,016,31,82,58,136,41,81,42,045,40,73,32,305,36*68
$GLGSV,2,2,08,79,29,105,33,71,21,289,33,72,16,341,18,70,04,243,22*61
$GNRMC,022635.000,A,5102.0676,N,11403.6176,W,24.41,140.44,100315,,,A*52
$GPVTG,140.44,T,,M,24.41,N,45.23,K,A*3B
$GPGGA,022636.000,5102.0620,N,11403.6108,W,1,17,0.68,1049.2,M,-17.5,M,,*6F
$GNGSA,A,3,30,13,11,07,04,17,01,15,28,19,,,1.20,0.68,0.98*13
$GNGSA,A,3,71,70,82,73,80,79,81,,,,,,1.20,0.68,0.98*10
$GPGSV,4,1,13,28,81,293,39,30,59,132,33,13,47,273,43,11,34,088,41*72
$GPGSV,4,2,13,17,33,194,36,51,31,171,37,07,28,129,37,15,24,311,34*72
$GPGSV,4,3,13,04,23,076,37,01,21,106,41,19,16,042,35,18,01,349,*75
$GPGSV,4,4,13,26,,,26*7B
$GLGSV,2,1,08,80,76,016,31,82,58,136,40,81,42,045,39,73,32,305,22*62
$GLGSV,2,2,08,79,29,105,33,71,21,289,32,72,16,341,31,70,04,243,23*6A
$GNRMC,022636.000,A,5102.0620,N,11403.6108,W,25.95,144.56,100315,,,A*54
$GPVTG,144.56,T,,M,25.95,N,48.08,K,A*30
$GPGGA,022637.000,5102.0558,N,11403.6047,W,1,17,0.68,1049.3,M,-17.5,M,,*69
$GNGSA,A,3,30,13,11,07,04,17,01,15,28,19,,,1.20,0.68,0.98*13
$GNGSA,A,3,71,70,82,73,80,79,81,,,,,,1.20,0.68,0.98*10
$GPGSV,4,1,13,28,81,293,39,30,59,132,33,13,47,273,43,11,34,088,40*73
$GPGSV,4,2,13,17,33,194,37,51,31,171,37,07,28,129,38,15,24,311,34*7C
$GPGSV,4,3,13,04,23,076,37,01,21,106,41,19,16,042,27,18,01,349,*76
$GPGSV,4,4,13,26,,,28*75
$GLGSV,2,1,08,80,76,016,32,82,58,136,39,81,42,045,39,73,32,305,34*68
$GLGSV,2,2,08,79,29,105,32,71,21,289,32,72,16,341,32,70,04,243,24*6F
$GNRMC,022637.000,A,5102.0558,N,11403.6047,W,25.98,150.98,100315,,,A*59
$GPVTG,150.98,T,,M,25.98,N,48.14,K,A*37
$GPGGA,022638.000,5102.0492,N,11403.5996,W,1,17,0.68,1049.4,M,-17.5,M,,*60
$GNGSA,A,3,30,13,11,07,04,17,01,15,28,19,,,1.20,0.68,0.98*13
$GNGSA,A,3,71,70,82,73,80,79,81,,,,,,1.20,0.68,0.98*10
$GPGSV,4,1,13,28,81,293,39,30,59,132,33,13,47,273,43,11,34,088,39*7D
$GPGSV,4,2,13,17,33,194,38,51,31,171,38,07,28,129,40,15,24,311,34*73
$GPGSV,4,3,13,04,23,076,38,01,21,106,41,19,16,042,28,18,01,349,*76
$GPGSV,4,4,13,26,,,30*7C
$GLGSV,2,1,08,80,76,016,33,82,58,136,37,81,42,045,40,73,32,305,35*68
$GLGSV,2,2,08,79,29,105,33,71,21,289,33,72,16,341,32,70,04,243,23*68
$GNRMC,022638.000,A,5102.0492,N,11403.5996,W,25.96,155.74,100315,,,A*5E
$GPVTG,155.74,T,,M,25.96,N,48.10,K,A*3A
$GPGGA,022639.000,5102.0423,N,11403.5951,W,1,17,0.68,1049.6,M,-17.5,M,,*62
$GNGSA,A,3,30,13,11,07,04,17,01,15,28,19,,,1.20,0.68,0.98*13
$GNGSA,A,3,71,70,82,73,80,79,81,,,,,,1.20,0.68,0.98*10
$GPGSV,4,1,13,28,81,293,39,30,59,132,32,13,47,273,42,11,34,088,39*7D
$GPGSV,4,2,13,17,33,194,39,51,31,171,38,07,28,129,41,15,24,311,34*73
$GPGSV,4,3,13,04,23,076,38,01,21,106,41,19,16,042,32,18,01,349,*7D
$GPGSV,4,4,13,26,,,30*7C
$GLGSV,2,1,08,80,76,016,33,82,58,136,36,81,42,045,41,73,32,305,35*68
$GLGSV,2,2,08,79,29,105,34,71,21,289,34,72,16,341,31,70,04,243,22*6A
$GNRMC,022639.000,A,5102.0423,N,11403.5951,W,26.70,159.21,100315,,,A*59
$GPVTG,159.21,T,,M,26.70,N,49.47,K,A*3E
$GPGGA,022640.000,5102.0350,N,11403.5911,W,1,18,0.63,1049.6,M,-17.5,M,,*6F
$GNGSA,A,3,30,13,11,07,04,17,01,15,28,19,,,1.13,0.63,0.94*14
$GNGSA,A,3,71,70,82,73,80,79,81,83,,,,,1.13,0.63,0.94*1C
$GPGSV,4,1,13,28,81,293,39,30,59,132,32,13,47,273,41,11,34,088,39*7E
$GPGSV,4,2,13,17,33,194,39,51,31,171,37,07,28,129,41,15,24,311,27*7E
$GPGSV,4,3,13,04,23,076,38,01,21,106,40,19,16,042,36,18,01,349,*78
$GPGSV,4,4,13,26,,,34*78
$GLGSV,3,1,09,80,76,016,34,82,58,136,35,81,42,045,41,73,32,305,34*6D
$GLGSV,3,2,09,79,29,105,35,71,21,289,36,72,16,341,32,83,12,183,36*6B
$GLGSV,3,3,09,70,04,243,21*59
$GNRMC,022640.000,A,5102.0350,N,11403.5911,W,28.09,162.49,100315,,,A*56
$GPVTG,162.49,T,,M,28.09,N,52.05,K,A*34
$GPGGA,022641.000,5102.0271,N,11403.5878,W,1,18,0.63,1049.4,M,-17.5,M,,*60
$GNGSA,A,3,30,13,11,07,04,17,01,15,28,19,,,1.13,0.63,0.94*14
$GNGSA,A,3,71,70,82,73,80,79,81,83,,,,,1.13,0.63,0.94*1C
$GPGSV,4,1,13,28,81,293,39,30,59,132,33,13,47,273,40,11,34,088,40*70
$GPGSV,4,2,13,17,33,194,39,51,31,171,36,07,28,129,42,15,24,311,27*7C
$GPGSV,4,3,13,04,23,076,31,01,21,106,39,19,16,042,30,18,01,349,*79
$GPGSV,4,4,13,26,,,24*79
$GLGSV,3,1,09,80,76,016,35,82,58,136,34,81,42,045,41,73,32,305,34*6D
$GLGSV,3,2,09,79,29,105,34,71,21,289,28,72,16,341,32,83,12,183,35*66
$GLGSV,3,3,09,70,04,242,20*59
$GNRMC,022641.000,A,5102.0271,N,11403.5878,W,29.68,166.42,100315,,,A*52
$GPVTG,166.42,T,,M,29.68,N,54.99,K,A*3E
$GPGGA,022642.000,5102.0188,N,11403.5853,W,1,18,0.63,1049.2,M,-17.5,M,,*69
$GNGSA,A,3,30,13,11,07,04,17,01,15,28,19,,,1.13,0.63,0.94*14
$GNGSA,A,3,71,70,82,73,80,79,81,83,,,,,1.13,0.63,0.94*1C
$GPGSV,4,1,13,28,81,293,39,30,59,132,33,13,47,273,30,11,34,088,40*77
$GPGSV,4,2,13,17,33,194,39,51,31,171,37,07,28,129,42,15,24,311,27*7D
$GPGSV,4,3,13,04,23,076,33,01,21,106,38,19,16,042,25,18,01,349,*7E
$GPGSV,4,4,13,26,,,18*76
$GLGSV,3,1,09,80,76,016,35,82,58,136,35,81,42,045,41,73,32,305,32*6A
$GLGSV,3,2,09,79,29,105,35,71,21,288,28,72,16,341,31,83,12,183,34*64
$GLGSV,3,3,09,70,04,242,19*53
$GNRMC,022642.000,A,5102.0188,N,11403.5853,W,30.77,171.05,100315,,,A*5E
$GPVTG,171.05,T,,M,30.77,N,57.01,K,A*3F
$GPGGA,022643.000,5102.0102,N,11403.5838,W,1,18,0.63,1049.0,M,-17.5,M,,*65
$GNGSA,A,3,30,13,11,07,04,17,01,15,28,19,,,1.13,0.63,0.94*14
$GNGSA,A,3,71,70,82,73,80,79,81,83,,,,,1.13,0.63,0.94*1C
$GPGSV,4,1,13,28,81,293,38,30,59,132,42,13,47,273,30,11,34,088,40*70
$GPGSV,4,2,13,17,33,194,40,51,31,171,38,07,28,129,42,15,24,311,29*72
$GPGSV,4,3,13,04,23,076,33,01,21,106,38,19,16,042,23,18,01,349,*78
$GPGSV,4,4,13,26,,,30*7C
$GLGSV,3,1,09,80,76,016,36,82,58,136,35,81,42,045,41,73,32,305,30*6B
$GLGSV,3,2,09,79,29,105,35,71,21,288,41,72,16,341,30,83,12,183,25*6A
$GLGSV,3,3,09,70,04,242,18*52
$GNRMC,022643.000,A,5102.0102,N,11403.5838,W,30.76,176.25,100315,,,A*54
$GPVTG,176.25,T,,M,30.76,N,56.99,K,A*3B
$GPGGA,022644.000,5102.0016,N,11403.5835,W,1,18,0.63,1048.9,M,-17.5,M,,*63
$GNGSA,A,3,30,13,11,07,04,17,01,15,28,19,,,1.13,0.63,0.94*14
$GNGSA,A,3,71,70,82,73,80,79,81,83,,,,,1.13,0.63,0.94*1C
$GPGSV,4,1,13,28,81,293,39,30,59,132,43,13,47,273,32,11,34,088,40*72
$GPGSV,4,2,13,17,33,194,41,51,31,171,38,07,28,129,43,15,24,311,36*7C
$GPGSV,4,3,13,04,23,076,32,01,21,106,39,19,16,042,25,18,01,349,*7E
$GPGSV,4,4,13,26,,,38*74
$GLGSV,3,1,09,80,76,016,36,82,58,136,37,81,42,045,41,73,33,306,31*6A
$GLGSV,3,2,09,79,29,105,35,71,21,288,41,72,16,341,28,83,12,183,26*60
$GLGSV,3,3,09,70,04,242,17*5D
$GNRMC,022644.000,A,5102.0016,N,11403.5835,W,30.81,179.82,100315,,,A*50
$GPVTG,179.82,T,,M,30.81,N,57.09,K,A*39
$GPGGA,022645.000,5101.9930,N,11403.5837,W,1,18,0.63,1048.9,M,-17.5,M,,*67
$GNGSA,A,3,30,13,11,07,04,17,01,15,28,19,,,1.13,0.63,0.94*14
$GNGSA,A,3,71,70,82,73,80,79,81,83,,,,,1.13,0.63,0.94*1C
$GPGSV,4,1,13,28,81,293,31,30,59,132,30,13,47,273,32,11,34,088,40*7E
$GPGSV,4,2,13,17,33,194,41,51,31,171,38,07,28,129,43,15,24,311,26*7D
$GPGSV,4,3,13,04,23,076,34,01,21,106,39,19,16,042,26,18,01,349,*7B
$GPGSV,4,4,13,26,,,30*7C
$GLGSV,3,1,09,80,76,016,35,82,58,136,37,81,42,045,42,73,33,306,29*63
$GLGSV,3,2,09,79,29,105,35,71,21,288,41,72,16,341,28,83,12,183,25*63
$GLGSV,3,3,09,70,04,242,26*5F
$GNRMC,022645.000,A,5101.9930,N,11403.5837,W,30.63,180.81,100315,,,A*5D
$GPVTG,180.81,T,,M,30.63,N,56.76,K,A*39
$GPGGA,022646.000,5101.9844,N,11403.5839,W,1,18,0.63,1049.0,M,-17.5,M,,*60
$GNGSA,A,3,30,13,11,07,04,17,01,15,28,19,,,1.13,0.63,0.94*14
$GNGSA,A,3,71,70,82,73,80,79,81,83,,,,,1.13,0.63,0.94*1C
$GPGSV,4,1,13,28,81,293,31,30,59,132,30,13,47,273,34,11,34,088,40*78
$GPGSV,4,2,13,17,33,194,41,51,31,171,38,07,28,129,43,15,24,311,27*7C
$GPGSV,4,3,13,04,23,076,36,01,21,106,39,19,16,042,26,18,01,349,*79
$GPGSV,4,4,13,26,,,30*7C
$GLGSV,3,1,09,80,76,016,35,82,58,136,36,81,42,045,42,73,33,306,29*62
$GLGSV,3,2,09,79,29,105,34,71,21,288,42,72,16,341,29,83,12,183,25*60
$GLGSV,3,3,09,70,04,242,19*53
$GNRMC,022646.000,A,5101.9844,N,11403.5839,W,30.46,180.79,100315,,,A*52
$GPVTG,180.79,T,,M,30.46,N,56.45,K,A*39
$GPGGA,022647.000,5101.9758,N,11403.5841,W,1,18,0.63,1049.1,M,-17.5,M,,*6D
$GNGSA,A,3,30,13,11,07,04,17,01,15,28,19,,,1.13,0.63,0.94*14
$GNGSA,A,3,71,70,82,73,80,79,81,83,,,,,1.13,0.63,0.94*1C
$GPGSV,4,1,13,28,81,293,31,30,59,132,31,13,47,273,33,11,34,088,39*70
$GPGSV,4,2,13,17,33,194,40,51,31,171,37,07,28,129,43,15,24,311,26*73
$GPGSV,4,3,13,04,23,076,34,01,21,106,38,19,16,042,25,18,01,349,*79
$GPGSV,4,4,13,26,,,30*7C
$GLGSV,3,1,09,80,76,016,34,82,58,136,36,81,42,045,42,73,33,306,30*6B
$GLGSV,3,2,09,79,29,105,34,71,21,288,42,72,16,341,29,83,12,183,25*60
$GLGSV,3,3,09,70,04,242,18*52
$GNRMC,022647.000,A,5101.9758,N,11403.5841,W,30.53,180.55,100315,,,A*54
$GPVTG,180.55,T,,M,30.53,N,56.58,K,A*3F
$GPGGA,022648.000,5101.9672,N,11403.5843,W,1,18,0.63,1049.3,M,-17.5,M,,*6B
$GNGSA,A,3,30,13,11,07,04,17,01,15,28,19,,,1.13,0.63,0.94*14
$GNGSA,A,3,71,70,82,73,80,79,81,83,,,,,1.13,0.63,0.94*1C
$GPGSV,4,1,13,28,81,293,31,30,59,132,32,13,47,273,32,11,34,088,39*72
$GPGSV,4,2,13,17,33,194,40,51,31,171,37,07,28,129,43,15,24,311,26*73
$GPGSV,4,3,13,04,23,076,34,01,21,106,38,19,16,042,25,18,01,349,*79
$GPGSV,4,4,13,26,,,31*7D
$GLGSV,3,1,09,80,76,016,33,82,58,136,36,81,42,045,42,73,33,306,29*64
$GLGSV,3,2,09,79,29,105,34,71,21,288,42,72,16,341,28,83,12,183,24*60
$GLGSV,3,3,09,70,04,242,17*5D
$GNRMC,022648.000,A,5101.9672,N,11403.5843,W,31.08,180.31,100315,,,A*5D
$GPVTG,180.31,T,,M,31.08,N,57.59,K,A*32
$GPGGA,022649.000,5101.9585,N,11403.5843,W,1,18,0.63,1049.6,M,-17.5,M,,*64
$GNGSA,A,3,30,13,11,07,04,17,01,15,28,19,,,1.13,0.63,0.94*14
$GNGSA,A,3,71,70,82,73,80,79,81,83,,,,,1.13,0.63,0.94*1C
$GPGSV,4,1,13,28,81,293,31,30,59,132,34,13,47,273,33,11,34,088,39*75
$GPGSV,4,2,13,17,33,194,40,51,31,171,37,07,28,129,44,15,24,311,26*74
$GPGSV,4,3,13,04,23,076,33,01,21,106,38,19,16,042,26,18,01,349,*7D
$GPGSV,4,4,13,26,,,32*7E
$GLGSV,3,1,09,80,76,016,33,82,58,136,37,81,42,045,42,73,33,306,29*65
$GLGSV,3,2,09,79,29,105,34,71,21,288,42,72,16,341,29,83,12,183,24*61
$GLGSV,3,3,09,70,04,242,19*53
$GNRMC,022649.000,A,5101.9585,N,11403.5843,W,31.15,180.15,100315,,,A*5D
$GPVTG,180.15,T,,M,31.15,N,57.72,K,A*31
$GPGGA,022650.000,5101.9498,N,11403.5845,W,1,18,0.63,1049.7,M,-17.5,M,,*66
$GNGSA,A,3,30,13,11,07,04,17,01,15,28,19,,,1.13,0.63,0.94*14
$GNGSA,A,3,71,70,82,73,80,79,81,83,,,,,1.13,0.63,0.94*1C
$GPGSV,4,1,13,28,81,293,32,30,59,132,35,13,47,273,34,11,34,088,39*70
$GPGSV,4,2,13,17,33,194,41,51,31,171,37,07,28,129,44,15,24,311,25*76
$GPGSV,4,3,13,04,23,076,34,01,21,106,38,19,16,042,25,18,01,349,*79
$GPGSV,4,4,13,26,,,32*7E
$GLGSV,3,1,09,80,76,016,34,82,58,136,37,81,42,045,42,73,33,306,29*62
$GLGSV,3,2,09,79,28,105,34,71,21,288,42,72,16,341,29,83,12,183,24*60
$GLGSV,3,3,09,70,04,242,19*53
$GNRMC,022650.000,A,5101.9498,N,11403.5845,W,30.80,180.30,100315,,,A*54
$GPVTG,180.30,T,,M,30.80,N,57.07,K,A*39
$GPGGA,022651.000,5101.9412,N,11403.5846,W,1,18,0.63,1049.8,M,-17.5,M,,*69
$GNGSA,A,3,30,13,11,07,04,17,01,15,28,19,,,1.13,0.63,0.94*14
$GNGSA,A,3,71,70,82,73,80,79,81,83,,,,,1.13,0.63,0.94*1C
$GPGSV,4,1,13,28,81,293,33,30,59,132,37,13,47,273,35,11,34,088,39*72
$GPGSV,4,2,13,17,33,194,41,51,31,171,38,07,28,129,45,15,24,311,23*7E
$GPGSV,4,3,13,04,23,076,34,01,21,106,38,19,16,042,23,18,01,349,*7F
$GPGSV,4,4,13,26,,,33*7F
$GLGSV,3,1,09,80,76,019,33,82,58,136,38,81,42,045,42,73,33,306,28*64
$GLGSV,3,2,09,79,28,105,35,71,21,288,42,72,16,341,29,83,12,183,23*66
$GLGSV,3,3,09,70,04,242,18*52
$GNRMC,022651.000,A,5101.9412,N,11403.5846,W,30.14,180.11,100315,,,A*5A
$GPVTG,180.11,T,,M,30.14,N,55.85,K,A*3F
$GPGGA,022652.000,5101.9329,N,11403.5847,W,1,18,0.63,1049.7,M,-17.5,M,,*6B
$GNGSA,A,3,30,13,11,07,04,17,01,15,28,19,,,1.13,0.63,0.94*14
$GNGSA,A,3,71,70,82,73,80,79,81,83,,,,,1.13,0.63,0.94*1C
$GPGSV,4,1,13,28,81,293,33,30,59,132,37,13,47,273,33,11,34,088,39*74
$GPGSV,4,2,13,17,33,194,41,51,31,171,38,07,28,129,45,15,24,311,22*7F
$GPGSV,4,3,13,04,23,076,34,01,21,106,38,19,16,042,24,18,01,349,*78
$GPGSV,4,4,13,26,,,33*7F
$GLGSV,3,1,09,80,76,019,33,82,58,136,38,81,42,044,42,73,33,306,28*65
$GLGSV,3,2,09,79,28,105,35,71,21,288,42,72,16,341,29,83,12,183,23*66
$GLGSV,3,3,09,70,04,242,18*52
$GNRMC,022652.000,A,5101.9329,N,11403.5847,W,29.55,180.18,100315,,,A*53
$GPVTG,180.18,T,,M,29.55,N,54.76,K,A*36
$GPGGA,022653.000,5101.9247,N,11403.5848,W,1,18,0.63,1049.8,M,-17.5,M,,*63
$GNGSA,A,3,30,13,11,07,04,17,01,15,28,19,,,1.13,0.63,0.94*14
$GNGSA,A,3,71,70,82,73,80,79,81,83,,,,,1.13,0.63,0.94*1C
$GPGSV,4,1,13,28,81,293,32,30,59,132,38,13,47,273,33,11,34,088,39*7A
$GPGSV,4,2,13,17,33,194,41,51,31,171,38,07,28,129,45,15,24,311,31*7D
$GPGSV,4,3,13,04,23,076,35,01,21,106,38,19,16,042,33,18,01,349,*7F
$GPGSV,4,4,13,26,,,34*78
$GLGSV,3,1,09,80,76,019,33,82,58,135,38,81,42,044,42,73,33,306,28*66
$GLGSV,3,2,09,79,28,105,35,71,21,288,42,72,16,341,29,83,12,183,24*61
$GLGSV,3,3,09,70,04,242,17*5D
$GNRMC,022653.000,A,5101.9247,N,11403.5848,W,28.94,180.31,100315,,,A*53
$GPVTG,180.31,T,,M,28.94,N,53.63,K,A*32
$GPGGA,022654.000,5101.9167,N,11403.5849,W,1,18,0.63,1050.0,M,-17.5,M,,*64
$GNGSA,A,3,30,13,11,07,04,17,01,15,28,19,,,1.13,0.63,0.94*14
$GNGSA,A,3,71,70,82,73,80,79,81,83,,,,,1.13,0.63,0.94*1C
$GPGSV,4,1,13,28,81,293,32,30,59,132,39,13,47,273,34,11,34,088,39*7C
$GPGSV,4,2,13,17,33,194,41,51,31,171,38,07,28,129,45,15,24,311,30*7C
$GPGSV,4,3,13,04,23,076,36,01,21,106,38,19,16,042,32,18,01,349,*7D
$GPGSV,4,4,13,26,,,35*79
$GLGSV,3,1,09,80,76,019,33,82,58,135,38,81,42,044,42,73,33,306,28*66
$GLGSV,3,2,09,79,28,105,35,71,21,288,43,72,16,341,29,83,12,183,25*61
$GLGSV,3,3,09,70,04,242,17*5D
$GNRMC,022654.000,A,5101.9167,N,11403.5849,W,28.30,180.11,100315,,,A*58
$GPVTG,180.11,T,,M,28.30,N,52.45,K,A*3B
$GPGGA,022655.000,5101.9089,N,11403.5849,W,1,18,0.63,1050.1,M,-17.5,M,,*65
$GNGSA,A,3,30,13,11,07,04,17,01,15,28,19,,,1.13,0.63,0.94*14
$GNGSA,A,3,71,70,82,73,80,79,81,83,,,,,1.13,0.63,0.94*1C
$GPGSV,4,1,13,28,81,293,33,30,59,132,39,13,47,273,35,11,34,088,39*7C
$GPGSV,4,2,13,17,33,194,41,51,31,171,38,07,28,129,45,15,24,311,30*7C
$GPGSV,4,3,13,04,23,076,35,01,21,106,37,19,16,042,32,18,01,349,*71
$GPGSV,4,4,13,26,,,35*79
$GLGSV,3,1,09,80,76,019,33,82,58,135,38,81,42,044,42,73,33,306,28*66
$GLGSV,3,2,09,79,28,105,35,71,21,288,43,72,16,341,29,83,12,183,25*61
$GLGSV,3,3,09,70,04,242,17*5D
$GNRMC,022655.000,A,5101.9089,N,11403.5849,W,27.60,179.95,100315,,,A*58
$GPVTG,179.95,T,,M,27.60,N,51.15,K,A*3D
$GPGGA,022656.000,5101.9013,N,11403.5850,W,1,18,0.63,1050.2,M,-17.5,M,,*6E
$GNGSA,A,3,30,13,11,07,04,17,01,15,28,19,,,1.13,0.63,0.94*14
$GNGSA,A,3,71,70,82,73,80,79,81,83,,,,,1.13,0.63,0.94*1C
$GPGSV,4,1,13,28,81,293,33,30,59,132,38,13,47,273,35,11,34,088,39*7D
$GPGSV,4,2,13,17,33,194,41,51,31,171,38,07,28,129,45,15,24,311,29*74
$GPGSV,4,3,13,04,23,076,35,01,21,106,37,19,16,042,32,18,01,349,*71
$GPGSV,4,4,13,26,,,35*79
$GLGSV,3,1,09,80,76,019,33,82,58,135,38,81,42,044,42,73,33,306,28*66
$GLGSV,3,2,09,79,28,105,35,71,21,288,43,72,16,341,29,83,12,183,26*62
$GLGSV,3,3,09,70,04,242,16*5C
$GNRMC,022656.000,A,5101.9013,N,11403.5850,W,26.95,180.26,100315,,,A*55
$GPVTG,180.26,T,,M,26.95,N,49.94,K,A*38
$GPGGA,022657.000,5101.8939,N,11403.5851,W,1,18,0.63,1050.3,M,-17.5,M,,*6F
$GNGSA,A,3,30,13,11,07,04,17,01,15,28,19,,,1.13,0.63,0.94*14
$GNGSA,A,3,71,70,82,73,80,79,81,83,,,,,1.13,0.63,0.94*1C
$GPGSV,4,1,13,28,81,293,33,30,59,132,38,13,47,273,34,11,34,088,39*7C
$GPGSV,4,2,13,17,33,194,41,51,31,171,38,07,28,129,45,15,24,311,28*75
$GPGSV,4,3,13,04,23,076,35,01,21,106,37,19,16,042,30,18,01,349,*73
$GPGSV,4,4,13,26,,,35*79
$GLGSV,3,1,09,80,76,019,33,82,58,135,38,81,42,044,42,73,33,306,28*66
$GLGSV,3,2,09,79,28,105,35,71,21,288,43,72,16,341,29,83,12,183,26*62
$GLGSV,3,3,09,70,04,242,12*58
$GNRMC,022657.000,A,5101.8939,N,11403.5851,W,26.31,180.53,100315,,,A*59
$GPVTG,180.53,T,,M,26.31,N,48.76,K,A*39
$GPGGA,022658.000,5101.8866,N,11403.5853,W,1,18,0.63,1050.5,M,-17.5,M,,*6F
$GNGSA,A,3,30,13,11,07,04,17,01,15,28,19,,,1.13,0.63,0.94*14
$GNGSA,A,3,71,70,82,73,80,79,81,83,,,,,1.13,0.63,0.94*1C
$GPGSV,4,1,13,28,81,293,33,30,59,132,38,13,47,273,33,11,34,088,39*7B
$GPGSV,4,2,13,17,33,194,42,51,31,171,38,07,28,129,45,15,24,311,27*79
$GPGSV,4,3,13,04,23,076,35,01,21,106,37,19,16,042,29,18,01,349,*7B
$GPGSV,4,4,13,26,,,35*79
$GLGSV,3,1,09,80,76,019,33,82,58,135,38,81,42,044,42,73,33,306,27*69
$GLGSV,3,2,09,79,28,105,35,71,21,288,43,72,16,341,29,83,12,183,27*63
$GLGSV,3,3,09,70,04,242,13*59
$GNRMC,022658.000,A,5101.8866,N,11403.5853,W,25.65,180.64,100315,,,A*59
$GPVTG,180.64,T,,M,25.65,N,47.53,K,A*37
$GPGGA,022659.000,5101.8796,N,11403.5855,W,1,18,0.63,1050.6,M,-17.5,M,,*6B
$GNGSA,A,3,30,13,11,07,04,17,01,15,28,19,,,1.13,0.63,0.94*14
$GNGSA,A,3,71,70,82,73,80,79,81,83,,,,,1.13,0.63,0.94*1C
$GPGSV,4,1,13,28,81,293,33,30,59,132,37,13,47,273,32,11,34,088,39*75
$GPGSV,4,2,13,17,33,194,42,51,31,171,38,07,28,129,45,15,24,311,26*78
$GPGSV,4,3,13,04,23,076,35,01,21,106,37,19,16,042,29,18,01,349,*7B
$GPGSV,4,4,13,26,,,35*79
$GLGSV,3,1,09,80,76,019,34,82,58,135,38,81,42,044,42,73,33,306,27*6E
$GLGSV,3,2,09,79,28,105,35,71,21,288,43,72,16,341,28,83,12,183,26*63
$GLGSV,3,3,09,70,04,242,14*5E
$GNRMC,022659.000,A,5101.8796,N,11403.5855,W,24.62,180.85,100315,,,A*57
$GPVTG,180.85,T,,M,24.62,N,45.63,K,A*3F
$GPGGA,022700.000,5101.8731,N,11403.5857,W,1,18,0.63,1050.6,M,-17.5,M,,*69
$GNGSA,A,3,30,13,11,07,04,17,01,15,28,19,,,1.13,0.63,0.94*14
$GNGSA,A,3,71,70,82,73,80,79,81,83,,,,,1.13,0.63,0.94*1C
$GPGSV,4,1,13,28,81,293,32,30,59,132,37,13,47,273,33,11,34,088,38*74
$GPGSV,4,2,13,17,33,194,42,51,31,171,38,07,28,129,45,15,24,311,25*7B
$GPGSV,4,3,13,04,23,076,33,01,22,105,37,19,16,042,29,18,01,349,*7D
$GPGSV,4,4,13,26,,,36*7A
$GLGSV,3,1,09,80,76,019,34,82,58,135,39,81,42,044,42,73,33,306,27*6F
$GLGSV,3,2,09,79,28,105,35,71,21,288,43,72,16,341,28,83,12,183,24*61
$GLGSV,3,3,09,70,04,242,15*5F
$GNRMC,022700.000,A,5101.8731,N,11403.5857,W,22.09,180.86,100315,,,A*5D
$GPVTG,180.86,T,,M,22.09,N,40.94,K,A*3A
$GPGGA,022701.000,5101.8675,N,11403.5859,W,1,18,0.63,1050.7,M,-17.5,M,,*66
$GNGSA,A,3,30,13,11,07,04,17,01,15,28,19,,,1.13,0.63,0.94*14
$GNGSA,A,3,71,70,82,73,80,79,81,83,,,,,1.13,0.63,0.94*1C
$GPGSV,4,1,13,28,81,293,33,30,59,132,37,13,47,273,33,11,34,088,39*74
$GPGSV,4,2,13,17,33,194,42,51,31,171,38,07,28,129,45,15,24,311,32*7D
$GPGSV,4,3,13,04,23,076,34,01,22,105,37,19,16,042,29,18,01,349,*7A
$GPGSV,4,4,13,26,,,35*79
$GLGSV,3,1,09,80,76,019,34,82,58,135,39,81,42,044,42,73,33,306,26*6E
$GLGSV,3,2,09,79,28,105,34,71,21,288,43,72,16,341,29,83,12,183,23*66
$GLGSV,3,3,09,70,04,242,14*5E
$GNRMC,022701.000,A,5101.8675,N,11403.5859,W,18.70,181.43,100315,,,A*5C
$GPVTG,181.43,T,,M,18.70,N,34.65,K,A*38
$GPGGA,022702.000,5101.8627,N,11403.5861,W,1,18,0.63,1050.8,M,-17.5,M,,*66
$GNGSA,A,3,30,13,11,07,04,17,01,15,28,19,,,1.13,0.63,0.94*14
$GNGSA,A,3,71,70,82,73,80,79,81,83,,,,,1.13,0.63,0.94*1C
$GPGSV,4,1,13,28,81,293,32,30,59,132,36,13,47,273,32,11,34,088,39*75
$GPGSV,4,2,13,17,33,194,42,51,31,171,38,07,28,129,45,15,24,311,25*7B
$GPGSV,4,3,13,04,23,076,35,01,22,105,37,19,16,042,29,18,01,349,*7B
$GPGSV,4,4,13,26,,,35*79
$GLGSV,3,1,09,80,76,019,34,82,58,135,39,81,42,044,42,73,33,306,27*6F
$GLGSV,3,2,09,79,28,105,34,71,21,288,43,72,16,341,30,83,12,183,23*6E
$GLGSV,3,3,09,70,04,242,15*5F
$GNRMC,022702.000,A,5101.8627,N,11403.5861,W,15.60,181.24,100315,,,A*5E
$GPVTG,181.24,T,,M,15.60,N,28.91,K,A*33
$GPGGA,022703.000,5101.8588,N,11403.5863,W,1,18,0.63,1050.8,M,-17.5,M,,*63
$GNGSA,A,3,30,13,11,07,04,17,01,15,28,19,,,1.13,0.63,0.94*14
$GNGSA,A,3,71,70,82,73,80,79,81,83,,,,,1.13,0.63,0.94*1C
$GPGSV,4,1,13,28,81,293,31,30,59,132,37,13,47,273,32,11,34,088,40*79
$GPGSV,4,2,13,17,33,194,42,51,31,171,38,07,28,129,45,15,24,311,26*78
$GPGSV,4,3,13,04,23,075,36,01,22,105,37,19,16,042,30,18,01,349,*73
$GPGSV,4,4,13,26,,,35*79
$GLGSV,3,1,09,80,76,019,33,82,58,135,38,81,42,044,42,73,33,306,29*67
$GLGSV,3,2,09,79,28,105,34,71,21,288,42,72,16,341,30,83,12,183,21*6D
$GLGSV,3,3,09,70,04,242,15*5F
$GNRMC,022703.000,A,5101.8588,N,11403.5863,W,13.14,180.65,100315,,,A*5A
$GPVTG,180.65,T,,M,13.14,N,24.34,K,A*31
$GPGGA,022704.000,5101.8555,N,11403.5863,W,1,18,0.63,1050.8,M,-17.5,M,,*64
$GNGSA,A,3,30,13,11,07,04,17,01,15,28,19,,,1.13,0.63,0.94*14
$GNGSA,A,3,71,70,82,73,80,79,81,83,,,,,1.13,0.63,0.94*1C
$GPGSV,4,1,13,28,81,293,31,30,59,132,38,13,47,273,33,11,34,088,41*76
$GPGSV,4,2,13,17,33,194,42,51,31,171,38,07,28,129,45,15,24,311,27*79
$GPGSV,4,3,13,04,23,075,37,01,22,105,37,19,16,042,31,18,01,349,*73
$GPGSV,4,4,13,26,,,34*78
$GLGSV,3,1,09,80,76,019,33,82,58,135,38,81,42,044,42,73,33,306,28*66
$GLGSV,3,2,09,79,28,105,34,71,21,288,31,72,16,341,30,83,12,183,20*68
$GLGSV,3,3,09,70,04,242,17*5D
$GNRMC,022704.000,A,5101.8555,N,11403.5863,W,10.74,179.91,100315,,,A*55
$GPVTG,179.91,T,,M,10.74,N,19.91,K,A*38
$GPGGA,022705.000,5101.8529,N,11403.5864,W,1,18,0.63,1050.8,M,-17.5,M,,*69
$GNGSA,A,3,30,13,11,07,04,17,01,15,28,19,,,1.13,0.63,0.94*14
$GNGSA,A,3,71,70,82,73,80,79,81,83,,,,,1.13,0.63,0.94*1C
$GPGSV,4,1,13,28,81,293,32,30,59,132,38,13,47,273,31,11,34,088,41*77
$GPGSV,4,2,13,17,33,194,42,51,31,171,39,07,28,129,45,15,24,311,27*78
$GPGSV,4,3,13,04,23,075,37,01,22,105,37,19,16,042,31,18,01,349,*73
$GPGSV,4,4,13,26,,,33*7F
$GLGSV,3,1,09,80,76,019,34,82,58,135,38,81,42,044,42,73,33,306,35*6D
$GLGSV,3,2,09,79,28,105,35,71,21,288,42,72,16,341,30,83,12,183,21*6C
$GLGSV,3,3,09,70,04,242,16*5C
$GNRMC,022705.000,A,5101.8529,N,11403.5864,W,8.21,179.99,100315,,,A*69
$GPVTG,179.99,T,,M,8.21,N,15.22,K,A*0D
$GPGGA,022706.000,5101.8510,N,11403.5865,W,1,18,0.63,1050.9,M,-17.5,M,,*60
$GNGSA,A,3,30,13,11,07,04,17,01,15,28,19,,,1.13,0.63,0.94*14
$GNGSA,A,3,71,70,82,73,80,79,81,83,,,,,1.13,0.63,0.94*1C
$GPGSV,4,1,13,28,81,293,33,30,59,132,38,13,47,273,30,11,34,088,40*76
$GPGSV,4,2,13,17,33,194,42,51,31,171,39,07,27,129,45,15,24,311,27*77
$GPGSV,4,3,13,04,23,075,37,01,22,105,37,19,16,042,30,18,01,349,*72
$GPGSV,4,4,13,26,,,32*7E
$GLGSV,3,1,09,80,76,019,34,82,58,135,38,81,42,044,42,73,33,306,35*6D
$GLGSV,3,2,09,79,28,105,36,71,21,288,42,72,16,341,29,83,12,183,23*65
$GLGSV,3,3,09,70,04,242,19*53
$GNRMC,022706.000,A,5101.8510,N,11403.5865,W,5.87,179.82,100315,,,A*6A
$GPVTG,179.82,T,,M,5.87,N,10.87,K,A*0C
$GPGGA,022707.000,5101.8495,N,11403.5865,W,1,18,0.63,1050.9,M,-17.5,M,,*6D
$GNGSA,A,3,30,13,11,07,04,17,01,15,28,19,,,1.13,0.63,0.94*14
$GNGSA,A,3,71,70,82,73,80,79,81,83,,,,,1.13,0.63,0.94*1C
$GPGSV,4,1,13,28,81,293,32,30,59,132,37,13,47,273,30,11,34,088,39*76
$GPGSV,4,2,13,17,33,194,41,51,31,171,38,07,27,129,45,15,24,311,27*75
$GPGSV,4,3,13,04,23,075,30,01,22,105,36,19,16,042,29,18,01,349,*7C
$GPGSV,4,4,13,26,,,23*7E
$GLGSV,3,1,09,80,76,019,33,82,58,135,39,81,42,044,42,73,33,306,34*6A
$GLGSV,3,2,09,79,28,105,36,71,21,288,41,72,16,341,29,83,12,183,23*66
$GLGSV,3,3,09,70,04,242,18*52
$GNRMC,022707.000,A,5101.8495,N,11403.5865,W,5.62,179.87,100315,,,A*69
$GPVTG,179.87,T,,M,5.62,N,10.41,K,A*08
$GPGGA,022708.000,5101.8480,N,11403.5865,W,1,18,0.63,1050.9,M,-17.5,M,,*66
$GNGSA,A,3,30,13,11,07,04,17,01,15,28,19,,,1.13,0.63,0.94*14
$GNGSA,A,3,71,70,82,73,80,79,81,83,,,,,1.13,0.63,0.94*1C
$GPGSV,4,1,13,28,81,293,32,30,59,132,37,13,47,273,29,11,34,088,38*7F
$GPGSV,4,2,13,17,33,194,41,51,31,171,38,07,27,129,45,15,24,311,26*74
$GPGSV,4,3,13,04,23,075,32,01,22,105,36,19,16,042,29,18,01,349,*7E
$GPGSV,4,4,13,26,,,30*7C
$GLGSV,3,1,09,80,76,019,34,82,58,135,39,81,42,044,42,73,33,306,33*6A
$GLGSV,3,2,09,79,28,105,36,71,21,288,32,72,16,341,28,83,12,183,24*64
$GLGSV,3,3,09,70,04,242,18*52
$GNRMC,022708.000,A,5101.8480,N,11403.5865,W,5.56,180.98,100315,,,A*6D
$GPVTG,180.98,T,,M,5.56,N,10.31,K,A*00
$GPGGA,022709.000,5101.8466,N,11403.5866,W,1,18,0.63,1050.9,M,-17.5,M,,*6C
$GNGSA,A,3,30,13,11,07,04,17,01,15,28,19,,,1.13,0.63,0.94*14
$GNGSA,A,3,71,70,82,73,80,79,81,83,,,,,1.13,0.63,0.94*1C
$GPGSV,4,1,13,28,81,293,31,30,59,132,36,13,47,273,29,11,34,088,38*7D
$GPGSV,4,2,13,17,33,194,41,51,31,171,38,07,27,129,45,15,24,311,26*74
$GPGSV,4,3,13,04,23,075,33,01,22,105,37,19,16,042,29,18,01,349,*7E
$GPGSV,4,4,13,26,,,30*7C
$GLGSV,3,1,09,80,76,019,34,82,58,135,38,81,42,044,43,73,33,306,31*68
$GLGSV,3,2,09,79,28,105,36,71,21,288,40,72,16,341,28,83,12,183,24*61
$GLGSV,3,3,09,70,04,242,18*52
$GNRMC,022709.000,A,5101.8466,N,11403.5866,W,4.43,181.84,100315,,,A*6E
$GPVTG,181.84,T,,M,4.43,N,8.22,K,A*32
$GPGGA,022710.000,5101.8456,N,11403.5867,W,1,18,0.63,1051.0,M,-17.5,M,,*6E
$GNGSA,A,3,30,13,11,07,04,17,01,15,28,19,,,1.13,0.63,0.94*14
$GNGSA,A,3,71,70,82,73,80,79,81,83,,,,,1.13,0.63,0.94*1C
$GPGSV,4,1,13,28,81,293,32,30,59,132,35,13,47,273,28,11,34,087,38*73
$GPGSV,4,2,13,17,33,194,41,51,31,171,37,07,27,129,45,15,24,311,25*78
$GPGSV,4,3,13,04,23,075,34,01,22,105,36,19,16,042,27,18,01,349,*76
$GPGSV,4,4,13,26,,,29*74
$GLGSV,3,1,09,80,76,019,34,82,58,135,38,81,42,044,42,73,33,306,31*69
$GLGSV,3,2,09,79,28,105,36,71,21,288,41,72,16,341,28,83,12,183,24*60
$GLGSV,3,3,09,70,04,242,18*52
$GNRMC,022710.000,A,5101.8456,N,11403.5867,W,3.39,180.82,100315,,,A*69
$GPVTG,180.82,T,,M,3.39,N,6.28,K,A*3B
$GPGGA,022711.000,5101.8449,N,11403.5867,W,1,18,0.62,1051.1,M,-17.5,M,,*61
$GNGSA,A,3,30,13,11,07,04,17,01,15,28,19,,,0.93,0.62,0.68*1F
$GNGSA,A,3,71,70,82,73,80,79,81,83,,,,,0.93,0.62,0.68*17
$GPGSV,4,1,13,28,81,293,32,30,59,132,34,13,47,273,28,11,34,087,37*7D
$GPGSV,4,2,13,17,33,194,41,51,31,171,38,07,27,129,45,15,24,311,25*77
$GPGSV,4,3,13,04,23,075,33,01,22,105,35,19,16,042,27,18,01,349,*72
$GPGSV,4,4,13,26,,,29*74
$GLGSV,3,1,09,80,76,019,34,82,58,135,38,81,42,044,42,73,33,306,24*6D
$GLGSV,3,2,09,79,28,105,35,71,21,288,42,72,16,341,28,83,12,183,24*60
$GLGSV,3,3,09,70,04,242,17*5D
$GNRMC,022711.000,A,5101.8449,N,11403.5867,W,2.25,180.82,100315,,,A*6A
$GPVTG,180.82,T,,M,2.25,N,4.17,K,A*39
$GPGGA,022712.000,5101.8445,N,11403.5867,W,1,18,0.62,1051.2,M,-17.5,M,,*6D
$GNGSA,A,3,30,13,11,07,04,17,01,15,28,19,,,0.93,0.62,0.68*1F
$GNGSA,A,3,71,70,82,73,80,79,81,83,,,,,0.93,0.62,0.68*17
$GPGSV,4,1,13,28,81,293,33,30,59,132,33,13,47,272,28,11,34,087,36*7B
$GPGSV,4,2,13,17,33,194,41,51,31,171,38,07,27,129,45,15,24,311,33*70
$GPGSV,4,3,13,04,23,075,33,01,22,105,34,19,16,042,28,18,01,349,*7C
$GPGSV,4,4,13,26,,,30*7C
$GLGSV,3,1,09,80,76,019,34,82,58,135,38,81,42,044,42,73,33,306,25*6C
$GLGSV,3,2,09,79,28,105,36,71,21,288,43,72,16,341,28,83,12,183,23*65
$GLGSV,3,3,09,70,04,242,16*5C
$GNRMC,022712.000,A,5101.8445,N,11403.5867,W,0.13,180.82,100315,,,A*62
$GPVTG,180.82,T,,M,0.13,N,0.23,K,A*3D
$GPGGA,022713.000,5101.8443,N,11403.5868,W,1,18,0.62,1051.3,M,-17.5,M,,*64
$GNGSA,A,3,30,13,11,07,04,17,01,15,28,19,,,0.93,0.62,0.68*1F
$GNGSA,A,3,71,70,82,73,80,79,81,83,,,,,0.93,0.62,0.68*17
$GPGSV,4,1,13,28,81,293,32,30,59,132,34,13,47,272,26,11,34,087,36*73
$GPGSV,4,2,13,17,33,194,42,51,31,171,38,07,27,129,45,15,24,311,33*73
$GPGSV,4,3,13,04,23,075,33,01,22,105,36,19,16,042,28,18,01,349,*7E
$GPGSV,4,4,13,26,,,31*7D
$GLGSV,3,1,09,80,76,019,34,82,58,135,38,81,42,044,42,73,33,306,26*6F
$GLGSV,3,2,09,79,28,105,36,71,21,288,44,72,16,341,29,83,12,183,22*62
$GLGSV,3,3,09,70,04,242,15*5F
$GNRMC,022713.000,A,5101.8443,N,11403.5868,W,0.03,180.82,100315,,,A*6B
$GPVTG,180.82,T,,M,0.03,N,0.06,K,A*3B
$GPGGA,022714.000,5101.8442,N,11403.5868,W,1,18,0.62,1051.4,M,-17.5,M,,*65
$GNGSA,A,3,30,13,11,07,04,17,01,15,28,19,,,0.93,0.62,0.68*1F
$GNGSA,A,3,71,70,82,73,80,79,81,83,,,,,0.93,0.62,0.68*17
$GPGSV,4,1,13,28,81,293,32,30,59,132,34,13,47,272,19,11,34,087,36*7F
$GPGSV,4,2,13,17,33,194,42,51,31,171,37,07,27,129,45,15,24,310,33*7D
$GPGSV,4,3,13,04,23,075,32,01,22,105,36,19,16,042,27,18,01,349,*70
$GPGSV,4,4,13,26,,,30*7C
$GLGSV,3,1,09,80,76,019,35,82,58,135,38,81,42,044,42,73,33,306,26*6E
$GLGSV,3,2,09,79,28,105,35,71,21,288,44,72,16,341,29,83,12,183,23*60
$GLGSV,3,3,09,70,04,242,14*5E
$GNRMC,022714.000,A,5101.8442,N,11403.5868,W,0.06,180.82,100315,,,A*68
$GPVTG,180.82,T,,M,0.06,N,0.12,K,A*3B
$GPGGA,022715.000,5101.8440,N,11403.5867,W,1,18,0.62,1051.5,M,-17.5,M,,*68
$GNGSA,A,3,30,13,11,07,04,17,01,15,28,19,,,0.93,0.62,0.68*1F
$GNGSA,A,3,71,70,82,73,80,79,81,83,,,,,0.93,0.62,0.68*17
$GPGSV,4,1,13,28,81,293,33,30,59,132,34,13,47,272,19,11,34,087,36*7E
$GPGSV,4,2,13,17,33,194,41,51,31,171,37,07,27,129,45,15,24,310,32*7F
$GPGSV,4,3,13,04,23,075,33,01,22,105,34,19,16,042,26,18,01,349,*72
$GPGSV,4,4,13,26,,,30*7C
$GLGSV,3,1,09,80,76,019,34,82,58,135,37,81,42,044,41,73,33,306,27*62
$GLGSV,3,2,09,79,28,105,33,71,21,288,43,72,16,341,29,83,12,183,23*61
$GLGSV,3,3,09,70,04,242,15*5F
$GNRMC,022715.000,A,5101.8440,N,11403.5867,W,0.08,180.82,100315,,,A*6A
$GPVTG,180.82,T,,M,0.08,N,0.16,K,A*31
$GPGGA,022716.000,5101.8438,N,11403.5867,W,1,18,0.62,1051.6,M,-17.5,M,,*67
$GNGSA,A,3,30,13,11,07,04,17,01,15,28,19,,,0.93,0.62,0.68*1F
$GNGSA,A,3,71,70,82,73,80,79,81,83,,,,,0.93,0.62,0.68*17
$GPGSV,4,1,13,28,81,293,33,30,59,132,34,13,47,272,20,11,34,087,37*75
$GPGSV,4,2,13,17,33,194,41,51,31,171,37,07,27,129,45,15,24,310,23*7F
$GPGSV,4,3,13,04,23,075,34,01,22,105,35,19,16,042,27,18,01,349,*75
$GPGSV,4,4,13,26,,,29*74
$GLGSV,3,1,09,80,76,019,32,82,58,135,37,81,42,044,41,73,33,306,29*6A
$GLGSV,3,2,09,79,28,105,34,71,21,288,44,72,16,341,28,83,12,183,24*67
$GLGSV,3,3,09,70,04,242,14*5E
$GNRMC,022716.000,A,5101.8438,N,11403.5867,W,0.07,180.82,100315,,,A*69
$GPVTG,180.82,T,,M,0.07,N,0.14,K,A*3C
$GPGGA,022717.000,5101.8436,N,11403.5867,W,1,18,0.62,1051.6,M,-17.5,M,,*68
$GNGSA,A,3,30,13,11,07,04,17,01,15,28,19,,,0.93,0.62,0.68*1F
$GNGSA,A,3,71,70,82,73,80,79,81,83,,,,,0.93,0.62,0.68*17
$GPGSV,4,1,13,28,81,293,33,30,59,132,33,13,47,272,20,11,34,087,37*72
$GPGSV,4,2,13,17,33,194,41,51,31,171,36,07,27,129,45,15,24,310,23*7E
$GPGSV,4,3,13,04,23,075,34,01,22,105,36,19,16,042,28,18,01,348,*78
$GPGSV,4,4,13,26,,,28*75
$GLGSV,3,1,09,80,76,019,32,82,58,135,37,81,42,044,41,73,33,306,29*6A
$GLGSV,3,2,09,79,28,105,34,71,21,288,44,72,16,341,27,83,12,183,23*6F
$GLGSV,3,3,09,70,04,242,12*58
$GNRMC,022717.000,A,5101.8436,N,11403.5867,W,0.00,180.82,100315,,,A*61
$GPVTG,180.82,T,,M,0.00,N,0.00,K,A*3E
$GPGGA,022718.000,5101.8436,N,11403.5867,W,1,18,0.63,1051.6,M,-17.5,M,,*66
$GNGSA,A,3,30,13,11,07,04,17,01,15,28,19,,,1.13,0.63,0.94*14
$GNGSA,A,3,71,70,82,73,80,79,81,83,,,,,1.13,0.63,0.94*1C
$GPGSV,4,1,13,28,81,293,34,30,59,132,33,13,47,272,19,11,34,087,37*7F
$GPGSV,4,2,13,17,33,194,41,51,31,171,36,07,27,129,45,15,24,310,31*7D
$GPGSV,4,3,13,04,23,075,35,01,22,105,36,19,15,042,29,18,01,348,*7B
$GPGSV,4,4,13,26,,,28*75
$GLGSV,3,1,09,80,76,019,31,82,58,135,37,81,42,044,41,73,33,306,29*69
$GLGSV,3,2,09,79,28,105,35,71,21,288,44,72,16,341,27,83,12,183,24*69
$GLGSV,3,3,09,70,04,242,14*5E
$GNRMC,022718.000,A,5101.8436,N,11403.5867,W,0.00,180.82,100315,,,A*6E
$GPVTG,180.82,T,,M,0.00,N,0.00,K,A*3E
$GPGGA,022719.000,5101.8436,N,11403.5867,W,1,18,0.63,1051.6,M,-17.5,M,,*67
$GNGSA,A,3,30,13,11,07,04,17,01,15,28,19,,,1.13,0.63,0.94*14
$GNGSA,A,3,71,70,82,73,80,79,81,83,,,,,1.13,0.63,0.94*1C
$GPGSV,4,1,13,28,81,293,34,30,59,132,31,13,47,272,20,11,34,087,38*78
$GPGSV,4,2,13,17,33,194,41,51,31,171,36,07,27,129,45,15,24,310,31*7D
$GPGSV,4,3,13,04,23,075,36,01,22,105,36,19,15,042,30,18,01,348,*70
$GPGSV,4,4,13,26,,,28*75
$GLGSV,3,1,09,80,76,019,30,82,58,135,37,81,42,044,41,73,33,306,29*68
$GLGSV,3,2,09,79,28,105,36,71,21,288,45,72,16,341,27,83,12,183,23*6C
$GLGSV,3,3,09,70,04,242,15*5F
$GNRMC,022719.000,A,5101.8436,N,11403.5867,W,0.00,180.82,100315,,,A*6F
$GPVTG,180.82,T,,M,0.00,N,0.00,K,A*3E
$GPGGA,022720.000,5101.8436,N,11403.5867,W,1,18,0.63,1051.6,M,-17.5,M,,*6D
$GNGSA,A,3,30,13,11,07,04,17,01,15,28,19,,,1.13,0.63,0.94*14
$GNGSA,A,3,71,70,82,73,80,79,81,83,,,,,1.13,0.63,0.94*1C
$GPGSV,4,1,13,28,81,293,33,30,59,132,29,13,47,272,20,11,34,087,38*76
$GPGSV,4,2,13,17,33,194,41,51,31,171,36,07,27,129,45,15,24,310,31*7D
$GPGSV,4,3,13,04,23,075,36,01,22,105,36,19,15,042,31,18,01,348,*71
$GPGSV,4,4,13,26,,,28*75
$GLGSV,3,1,09,80,76,019,30,82,58,135,37,81,42,044,41,73,33,306,28*69
$GLGSV,3,2,09,79,28,105,36,71,21,288,45,72,16,341,27,83,12,183,23*6C
$GLGSV,3,3,09,70,04,242,13*59
$GNRMC,022720.000,A,5101.8436,N,11403.5867,W,0.00,180.82,100315,,,A*65
$GPVTG,180.82,T,,M,0.00,N,0.00,K,A*3E
$GPGGA,022721.000,5101.8436,N,11403.5867,W,1,18,0.63,1051.6,M,-17.5,M,,*6C
$GNGSA,A,3,30,13,11,07,04,17,01,15,28,19,,,1.13,0.63,0.94*14
$GNGSA,A,3,71,70,82,73,80,79,81,83,,,,,1.13,0.63,0.94*1C
$GPGSV,4,1,13,28,81,293,33,30,59,132,28,13,47,272,21,11,34,087,38*76
$GPGSV,4,2,13,17,33,194,40,51,31,171,36,07,27,129,45,15,24,310,31*7C
$GPGSV,4,3,13,04,23,075,36,01,22,105,36,19,15,042,31,18,01,348,*71
$GPGSV,4,4,13,26,,,28*75
$GLGSV,3,1,09,80,76,019,30,82,58,135,37,81,42,044,41,73,33,306,28*69
$GLGSV,3,2,09,79,28,105,36,71,21,288,45,72,16,341,27,83,12,183,24*6B
$GLGSV,3,3,09,70,04,242,16*5C
$GNRMC,022721.000,A,5101.8436,N,11403.5867,W,0.00,180.82,100315,,,A*64
$GPVTG,180.82,T,,M,0.00,N,0.00,K,A*3E
$GPGGA,022722.000,5101.8436,N,11403.5867,W,1,18,0.63,1051.6,M,-17.5,M,,*6F
$GNGSA,A,3,30,13,11,07,04,17,01,15,28,19,,,1.13,0.63,0.94*14
$GNGSA,A,3,71,70,82,73,80,79,81,83,,,,,1.13,0.63,0.94*1C
$GPGSV,4,1,13,28,81,293,34,30,59,132,28,13,47,272,20,11,34,087,38*70
$GPGSV,4,2,13,17,33,194,40,51,31,171,35,07,27,129,45,15,24,310,31*7F
$GPGSV,4,3,13,04,23,075,36,01,22,105,36,19,15,042,32,18,01,348,*72
$GPGSV,4,4,13,26,,,28*75
$GLGSV,3,1,09,80,76,019,29,82,58,135,37,81,42,044,41,73,33,306,27*6E
$GLGSV,3,2,09,79,28,105,36,71,21,288,45,72,16,341,26,83,12,183,25*6B
$GLGSV,3,3,09,70,04,242,12*58
$GNRMC,022722.000,A,5101.8436,N,11403.5867,W,0.00,180.82,100315,,,A*67
$GPVTG,180.82,T,,M,0.00,N,0.00,K,A*3E
$GPGGA,022723.000,5101.8436,N,11403.5867,W,1,18,0.63,1051.6,M,-17.5,M,,*6E
$GNGSA,A,3,30,13,11,07,04,17,01,15,28,19,,,1.13,0.63,0.94*14
$GNGSA,A,3,71,70,82,73,80,79,81,83,,,,,1.13,0.63,0.94*1C
$GPGSV,4,1,13,28,81,293,33,30,59,132,28,13,47,272,19,11,34,087,38*7D
$GPGSV,4,2,13,17,33,194,40,51,31,171,35,07,27,129,45,15,24,310,30*7E
$GPGSV,4,3,13,04,23,075,36,01,22,105,36,19,15,042,32,18,01,348,*72
$GPGSV,4,4,13,26,,,28*75
$GLGSV,3,1,09,80,76,019,29,82,58,135,37,81,42,044,41,73,33,306,28*61
$GLGSV,3,2,09,79,28,105,36,71,21,288,45,72,16,341,26,83,12,183,26*68
$GLGSV,3,3,09,70,04,242,13*59
$GNRMC,022723.000,A,5101.8436,N,11403.5867,W,0.00,180.82,100315,,,A*66
$GPVTG,180.82,T,,M,0.00,N,0.00,K,A*3E
$GPGGA,022724.000,5101.8436,N,11403.5867,W,1,18,0.63,1051.6,M,-17.5,M,,*69
$GNGSA,A,3,30,13,11,07,04,17,01,15,28,19,,,1.13,0.63,0.94*14
$GNGSA,A,3,71,70,82,73,80,79,81,83,,,,,1.13,0.63,0.94*1C
$GPGSV,4,1,13,28,81,293,33,30,59,132,28,13,47,272,17,11,34,087,38*73
$GPGSV,4,2,13,17,33,194,39,51,31,171,34,07,27,129,45,15,24,310,29*79
$GPGSV,4,3,13,04,23,075,36,01,22,105,36,19,15,042,32,18,01,348,*72
$GPGSV,4,4,13,26,,,28*75
$GLGSV,3,1,09,80,76,019,29,82,58,135,38,81,42,044,41,73,33,306,27*61
$GLGSV,3,2,09,79,28,105,36,71,21,288,45,72,16,341,25,83,12,183,25*68
$GLGSV,3,3,09,70,04,242,13*59
$GNRMC,022724.000,A,5101.8436,N,11403.5867,W,0.00,180.82,100315,,,A*61
$GPVTG,180.82,T,,M,0.00,N,0.00,K,A*3E
$GPGGA,022725.000,5101.8436,N,11403.5867,W,1,18,0.63,1051.6,M,-17.5,M,,*68
$GNGSA,A,3,30,13,11,07,04,17,01,15,28,19,,,1.13,0.63,0.94*14
$GNGSA,A,3,71,70,82,73,80,79,81,83,,,,,1.13,0.63,0.94*1C
$GPGSV,4,1,13,28,81,293,33,30,59,132,29,13,47,272,24,11,34,087,38*72
$GPGSV,4,2,13,17,33,194,39,51,31,171,34,07,27,129,45,15,24,310,31*70
$GPGSV,4,3,13,04,23,075,36,01,22,105,36,19,15,042,33,18,01,348,*73
$GPGSV,4,4,13,26,,,28*75
$GLGSV,3,1,09,80,76,019,29,82,58,135,38,81,42,044,41,73,33,306,26*60
$GLGSV,3,2,09,79,28,105,36,71,21,288,45,72,16,341,23,83,12,183,24*6F
$GLGSV,3,3,09,70,04,242,13*59
$GNRMC,022725.000,A,5101.8436,N,11403.5867,W,0.00,180.82,100315,,,A*60
$GPVTG,180.82,T,,M,0.00,N,0.00,K,A*3E
$GPGGA,022726.000,5101.8436,N,11403.5867,W,1,18,0.62,1051.6,M,-17.5,M,,*6A
$GNGSA,A,3,30,13,11,07,04,17,01,15,28,19,,,1.13,0.62,0.94*15
$GNGSA,A,3,71,70,82,73,80,79,81,83,,,,,1.13,0.62,0.94*1D
$GPGSV,4,1,13,28,81,293,33,30,59,132,31,13,47,272,25,11,34,087,38*7A
$GPGSV,4,2,13,17,33,194,39,51,31,171,35,07,27,129,44,15,24,310,30*71
$GPGSV,4,3,13,04,23,075,36,01,22,105,37,19,15,042,32,18,01,348,*73
$GPGSV,4,4,13,26,,,26*7B
$GLGSV,3,1,09,80,76,019,28,82,58,135,37,81,42,044,41,73,33,306,27*6F
$GLGSV,3,2,09,79,28,105,36,71,21,288,45,72,16,341,23,83,12,183,24*6F
$GLGSV,3,3,09,70,04,242,14*5E
$GNRMC,022726.000,A,5101.8436,N,11403.5867,W,0.00,180.82,100315,,,A*63
$GPVTG,180.82,T,,M,0.00,N,0.00,K,A*3E
$GPGGA,022727.000,5101.8436,N,11403.5867,W,1,18,0.62,1051.6,M,-17.5,M,,*6B
$GNGSA,A,3,30,13,11,07,04,17,01,15,28,19,,,1.13,0.62,0.94*15
$GNGSA,A,3,71,70,82,73,80,79,81,83,,,,,1.13,0.62,0.94*1D
$GPGSV,4,1,13,28,81,296,31,30,59,132,33,13,47,272,25,11,34,087,39*7E
$GPGSV,4,2,13,17,33,194,39,51,31,171,35,07,27,129,44,15,24,310,31*70
$GPGSV,4,3,13,04,23,075,37,01,22,105,38,19,15,042,33,18,01,348,*7C
$GPGSV,4,4,13,26,,,25*78
$GLGSV,3,1,09,80,76,019,27,82,58,135,37,81,42,044,41,73,33,306,26*61
$GLGSV,3,2,09,79,28,105,36,71,21,288,45,72,16,341,23,83,12,183,24*6F
$GLGSV,3,3,09,70,04,242,10*5A
$GNRMC,022727.000,A,5101.8436,N,11403.5867,W,0.00,180.82,100315,,,A*62
